{
"type": "FeatureCollection",
"name": "NRWN_Station",
"crs": { "type": "name", "properties": { "name": "urn:ogc:def:crs:OGC:1.3:CRS84" } },
"features": [
{ "type": "Feature", "properties": { "NID": "c23acce82b624183ae7cf8282ee35802", "STNENNAME": "Grande Prairie", "STNTYPE": "Unknown", "STNUSR1ENA": "Canadian National", "TRACKCLASS": "Main" }, "geometry": { "type": "Point", "coordinates": [ -118.783375, 55.1688158 ] } },
{ "type": "Feature", "properties": { "NID": "81ef7ace24d84fb29e36c9a50e5ced2e", "STNENNAME": "High Level", "STNTYPE": "Freight", "STNUSR1ENA": "Canadian National", "TRACKCLASS": "Main" }, "geometry": { "type": "Point", "coordinates": [ -117.1367609, 58.505432 ] } },
{ "type": "Feature", "properties": { "NID": "94b32f529f604e3795ba18d80c568b58", "STNENNAME": "Kerensky", "STNTYPE": "Unknown", "STNUSR1ENA": "Canadian National", "TRACKCLASS": "Main" }, "geometry": { "type": "Point", "coordinates": [ -113.1284263, 54.0165295 ] } },
{ "type": "Feature", "properties": { "NID": "99b1244bccc74b13b4d1a61aaae62f29", "STNENNAME": "Roma Junction", "STNTYPE": "Unknown", "STNUSR1ENA": "Canadian National", "TRACKCLASS": "Main" }, "geometry": { "type": "Point", "coordinates": [ -117.4940793, 56.213657 ] } },
{ "type": "Feature", "properties": { "NID": "b1264ef5b6184654a206b22ee0251807", "STNENNAME": "Sarcee Yard", "STNTYPE": "Intermodal", "STNUSR1ENA": "Canadian National", "TRACKCLASS": "Main" }, "geometry": { "type": "Point", "coordinates": [ -113.9908721, 51.0084956 ] } },
{ "type": "Feature", "properties": { "NID": "ff98892e3df24c2d898d90b4c89760f9", "STNENNAME": "Union Junction", "STNTYPE": "Freight", "STNUSR1ENA": "Canadian National", "TRACKCLASS": "Main" }, "geometry": { "type": "Point", "coordinates": [ -113.5856582, 53.5821758 ] } },
{ "type": "Feature", "properties": { "NID": "4093824c9ffa4facb1e8213cc8cd2913", "STNENNAME": "Winagami", "STNTYPE": "Unknown", "STNUSR1ENA": "Canadian National", "TRACKCLASS": "Main" }, "geometry": { "type": "Point", "coordinates": [ -116.9386947, 55.712213 ] } },
{ "type": "Feature", "properties": { "NID": "2dcda2db183c4ef0af89681972197b29", "STNENNAME": "Jasper", "STNTYPE": "Freight", "STNUSR1ENA": "Canadian National", "TRACKCLASS": "Main" }, "geometry": { "type": "Point", "coordinates": [ -118.0789116, 52.8752064 ] } },
{ "type": "Feature", "properties": { "NID": "0f76270b6607493cba5d84b83f0c4892", "STNENNAME": "Camrose", "STNTYPE": "Freight", "STNUSR1ENA": "Canadian National", "TRACKCLASS": "Main" }, "geometry": { "type": "Point", "coordinates": [ -112.8184867, 53.0114923 ] } },
{ "type": "Feature", "properties": { "NID": "35c894ed3cd44f16b17ea1574e2d985d", "STNENNAME": "Clover Bar", "STNTYPE": "Freight", "STNUSR1ENA": "Canadian National", "TRACKCLASS": "Main" }, "geometry": { "type": "Point", "coordinates": [ -113.3419269, 53.5771055 ] } },
{ "type": "Feature", "properties": { "NID": "a4b4bfde6809471d81e2d6ab91802ea5", "STNENNAME": "Park Gate", "STNTYPE": "Unknown", "STNUSR1ENA": "Canadian National", "TRACKCLASS": "Main" }, "geometry": { "type": "Point", "coordinates": [ -117.8930014, 53.2307768 ] } },
{ "type": "Feature", "properties": { "NID": "0d696bb60ebf44e5973d61254a36ebf5", "STNENNAME": "Holloway East", "STNTYPE": "Freight", "STNUSR1ENA": "Canadian National", "TRACKCLASS": "Main" }, "geometry": { "type": "Point", "coordinates": [ -116.6584939, 53.5342861 ] } },
{ "type": "Feature", "properties": { "NID": "1e96702c722b4c019ee0c05596c2e472", "STNENNAME": "Bickerdike", "STNTYPE": "Freight", "STNUSR1ENA": "Canadian National", "TRACKCLASS": "Main" }, "geometry": { "type": "Point", "coordinates": [ -116.6388429, 53.5440766 ] } },
{ "type": "Feature", "properties": { "NID": "ddcfde985140410b9435e30150038e1e", "STNENNAME": "Red Deer Junction", "STNTYPE": "Unknown", "STNUSR1ENA": "Canadian National", "TRACKCLASS": "Main" }, "geometry": { "type": "Point", "coordinates": [ -113.7833485, 52.3505432 ] } },
{ "type": "Feature", "properties": { "NID": "d5aa1282e28e4d02bd3454e0ac69b5cf", "STNENNAME": "Wabamun", "STNTYPE": "Unknown", "STNUSR1ENA": "Canadian National", "TRACKCLASS": "Main" }, "geometry": { "type": "Point", "coordinates": [ -114.4745594, 53.5569439 ] } },
{ "type": "Feature", "properties": { "NID": "93122c44007c4a87b5bf03b603db0370", "STNENNAME": "O'morrow", "STNTYPE": "Unknown", "STNUSR1ENA": "Canadian National", "TRACKCLASS": "Main" }, "geometry": { "type": "Point", "coordinates": [ -112.8654965, 54.893394 ] } },
{ "type": "Feature", "properties": { "NID": "6aaa5a903aa54f519b04e2e7cca2dbe7", "STNENNAME": "Norway", "STNTYPE": "Unknown", "STNUSR1ENA": "Canadian National", "TRACKCLASS": "Main" }, "geometry": { "type": "Point", "coordinates": [ -112.9509395, 52.8173718 ] } },
{ "type": "Feature", "properties": { "NID": "a08394aac22f4169a5dd3b94be2a1a69", "STNENNAME": "Rossi", "STNTYPE": "Unknown", "STNUSR1ENA": "Canadian National", "TRACKCLASS": "Main" }, "geometry": { "type": "Point", "coordinates": [ -110.933323, 53.3538684 ] } },
{ "type": "Feature", "properties": { "NID": "93286f6e73144784b9cd083e4b02289e", "STNENNAME": "Chisholm", "STNTYPE": "Unknown", "STNUSR1ENA": "Canadian National", "TRACKCLASS": "Main" }, "geometry": { "type": "Point", "coordinates": [ -114.1721162, 54.9141079 ] } },
{ "type": "Feature", "properties": { "NID": "57df392ee030441ca3eafbbb7b92706b", "STNENNAME": "Strachan", "STNTYPE": "Unknown", "STNUSR1ENA": "Canadian National", "TRACKCLASS": "Main" }, "geometry": { "type": "Point", "coordinates": [ -115.1446228, 52.2575091 ] } },
{ "type": "Feature", "properties": { "NID": "40ac85bee9ec4d789acc24d1cbe3b657", "STNENNAME": "Hubalta", "STNTYPE": "Unknown", "STNUSR1ENA": "Canadian National", "TRACKCLASS": "Main" }, "geometry": { "type": "Point", "coordinates": [ -113.9650114, 51.0285416 ] } },
{ "type": "Feature", "properties": { "NID": "08b466b56fca4081b70dcb67fee9124e", "STNENNAME": "Perks", "STNTYPE": "Unknown", "STNUSR1ENA": "Canadian National", "TRACKCLASS": "Main" }, "geometry": { "type": "Point", "coordinates": [ -113.3174312, 51.6067526 ] } },
{ "type": "Feature", "properties": { "NID": "4ca03d38488c4143be0f934f946c2a4d", "STNENNAME": "Thorhild", "STNTYPE": "Unknown", "STNUSR1ENA": "Canadian National", "TRACKCLASS": "Main" }, "geometry": { "type": "Point", "coordinates": [ -113.1229396, 54.1581048 ] } },
{ "type": "Feature", "properties": { "NID": "65b91d2b252e4113a0319fca01dad45d", "STNENNAME": "Leyland", "STNTYPE": "Unknown", "STNUSR1ENA": "Canadian National", "TRACKCLASS": "Main" }, "geometry": { "type": "Point", "coordinates": [ -117.3202515, 53.0367928 ] } },
{ "type": "Feature", "properties": { "NID": "0a46cd8610674ab69741bfd95573eade", "STNENNAME": "Egremont", "STNTYPE": "Unknown", "STNUSR1ENA": "Canadian National", "TRACKCLASS": "Main" }, "geometry": { "type": "Point", "coordinates": [ -113.124462, 54.039043 ] } },
{ "type": "Feature", "properties": { "NID": "6a3c625d5a464685b87b7f03c4b86602", "STNENNAME": "Windfall Jct", "STNTYPE": "Unknown", "STNUSR1ENA": "Canadian National", "TRACKCLASS": "Main" }, "geometry": { "type": "Point", "coordinates": [ -116.0712524, 54.2040401 ] } },
{ "type": "Feature", "properties": { "NID": "5b94dd23ed204aeca82ecef5ac064cee", "STNENNAME": "Galloway", "STNTYPE": "Unknown", "STNUSR1ENA": "Canadian National", "TRACKCLASS": "Main" }, "geometry": { "type": "Point", "coordinates": [ -116.8879757, 53.5377931 ] } },
{ "type": "Feature", "properties": { "NID": "bde55bb4dee745d481572d4b3c6aa59b", "STNENNAME": "Ram River", "STNTYPE": "Unknown", "STNUSR1ENA": "Canadian National", "TRACKCLASS": "Main" }, "geometry": { "type": "Point", "coordinates": [ -115.2994254, 52.1417654 ] } },
{ "type": "Feature", "properties": { "NID": "7163fccd9dc141688e5ccfa0b935c9db", "STNENNAME": "Heath", "STNTYPE": "Unknown", "STNUSR1ENA": "Canadian National", "TRACKCLASS": "Main" }, "geometry": { "type": "Point", "coordinates": [ -110.598529, 52.7982606 ] } },
{ "type": "Feature", "properties": { "NID": "a6d4f19209bb4336b89ff0d06652a3a6", "STNENNAME": "Boundary", "STNTYPE": "Unknown", "STNUSR1ENA": "Canadian National", "TRACKCLASS": "Main" }, "geometry": { "type": "Point", "coordinates": [ -116.9885597, 59.9943183 ] } },
{ "type": "Feature", "properties": { "NID": "882db6a10ada4f10bc5a787f8d1467a2", "STNENNAME": "Keg River", "STNTYPE": "Unknown", "STNUSR1ENA": "Canadian National", "TRACKCLASS": "Main" }, "geometry": { "type": "Point", "coordinates": [ -117.6633207, 57.7792401 ] } },
{ "type": "Feature", "properties": { "NID": "7f9e92ae340c4bbbb8a0cd9d64dc12e1", "STNENNAME": "Kaybob", "STNTYPE": "Freight", "STNUSR1ENA": "Canadian National", "TRACKCLASS": "Main" }, "geometry": { "type": "Point", "coordinates": [ -116.8624651, 54.3347746 ] } },
{ "type": "Feature", "properties": { "NID": "a6d789d23bc9438fbe501d1e7a694b52", "STNENNAME": "Knight", "STNTYPE": "Unknown", "STNUSR1ENA": "Canadian National", "TRACKCLASS": "Main" }, "geometry": { "type": "Point", "coordinates": [ -116.56115, 54.1581508 ] } },
{ "type": "Feature", "properties": { "NID": "cfffbabc5437439fa5d657a56dd7ffe5", "STNENNAME": "Auger", "STNTYPE": "Unknown", "STNUSR1ENA": "Canadian National", "TRACKCLASS": "Main" }, "geometry": { "type": "Point", "coordinates": [ -119.5482257, 55.3130842 ] } },
{ "type": "Feature", "properties": { "NID": "2edea3c7fa8d471d89bebb064b2c8061", "STNENNAME": "Crowell", "STNTYPE": "Unknown", "STNUSR1ENA": "Canadian National", "TRACKCLASS": "Main" }, "geometry": { "type": "Point", "coordinates": [ -116.9767931, 55.8210655 ] } },
{ "type": "Feature", "properties": { "NID": "4995b8ca6a324e19bef09e02fa751a0f", "STNENNAME": "Robb", "STNTYPE": "Unknown", "STNUSR1ENA": "Canadian National", "TRACKCLASS": "Main" }, "geometry": { "type": "Point", "coordinates": [ -116.9729867, 53.2350053 ] } },
{ "type": "Feature", "properties": { "NID": "010cf6144ae44caeaa71153c6c1a67fd", "STNENNAME": "Gaudin", "STNTYPE": "Freight", "STNUSR1ENA": "Canadian National", "TRACKCLASS": "Main" }, "geometry": { "type": "Point", "coordinates": [ -112.9919594, 53.7922902 ] } },
{ "type": "Feature", "properties": { "NID": "0a3519773ab5472496e682b06c61e31f", "STNENNAME": "Campbell Park", "STNTYPE": "Unknown", "STNUSR1ENA": "Canadian National", "TRACKCLASS": "Main" }, "geometry": { "type": "Point", "coordinates": [ -113.5752071, 53.6655107 ] } },
{ "type": "Feature", "properties": { "NID": "d033b75b2c1b49629895b930def2a00e", "STNENNAME": "McComb", "STNTYPE": "Unknown", "STNUSR1ENA": "Canadian National", "TRACKCLASS": "Main" }, "geometry": { "type": "Point", "coordinates": [ -117.4680789, 56.2155559 ] } },
{ "type": "Feature", "properties": { "NID": "7f81a6efb4194e46a3a1e040575179e7", "STNENNAME": "Edson", "STNTYPE": "Mixed", "STNUSR1ENA": "Canadian National", "TRACKCLASS": "Main" }, "geometry": { "type": "Point", "coordinates": [ -116.4305661, 53.5795577 ] } },
{ "type": "Feature", "properties": { "NID": "281b17408ffc4d3fb43060e3911761e3", "STNENNAME": "Deadwood", "STNTYPE": "Unknown", "STNUSR1ENA": "Canadian National", "TRACKCLASS": "Main" }, "geometry": { "type": "Point", "coordinates": [ -117.5683193, 56.7646388 ] } },
{ "type": "Feature", "properties": { "NID": "35c837b49c3941969317a117db7c6a96", "STNENNAME": "Bissell", "STNTYPE": "Freight", "STNUSR1ENA": "Canadian National", "TRACKCLASS": "Main" }, "geometry": { "type": "Point", "coordinates": [ -113.632867, 53.5715251 ] } },
{ "type": "Feature", "properties": { "NID": "196974d6221b461fa5c945ca901e07ae", "STNENNAME": "Yates", "STNTYPE": "Unknown", "STNUSR1ENA": "Canadian National", "TRACKCLASS": "Main" }, "geometry": { "type": "Point", "coordinates": [ -116.2974577, 53.6318185 ] } },
{ "type": "Feature", "properties": { "NID": "f536d5279da148de8d530d164af67228", "STNENNAME": "Jarrow", "STNTYPE": "Unknown", "STNUSR1ENA": "Canadian National", "TRACKCLASS": "Main" }, "geometry": { "type": "Point", "coordinates": [ -111.407023, 52.9440639 ] } },
{ "type": "Feature", "properties": { "NID": "da8448cbff6649bb9ad42abf3438abf7", "STNENNAME": "Solomon", "STNTYPE": "Unknown", "STNUSR1ENA": "Canadian National", "TRACKCLASS": "Main" }, "geometry": { "type": "Point", "coordinates": [ -117.8087787, 53.3390899 ] } },
{ "type": "Feature", "properties": { "NID": "b8f4adc8455843c5904d2175e47655ea", "STNENNAME": "Edson West", "STNTYPE": "Freight", "STNUSR1ENA": "Canadian National", "TRACKCLASS": "Main" }, "geometry": { "type": "Point", "coordinates": [ -116.4408165, 53.5766011 ] } },
{ "type": "Feature", "properties": { "NID": "5dd008209e5c4a829641b33f7809579a", "STNENNAME": "Embarras", "STNTYPE": "Unknown", "STNUSR1ENA": "Canadian National", "TRACKCLASS": "Main" }, "geometry": { "type": "Point", "coordinates": [ -116.9078138, 53.3028982 ] } },
{ "type": "Feature", "properties": { "NID": "acf6852e5fd8470a9783f0c897f4f93b", "STNENNAME": "Evansburg", "STNTYPE": "Mixed", "STNUSR1ENA": "Canadian National", "TRACKCLASS": "Main" }, "geometry": { "type": "Point", "coordinates": [ -115.0358218, 53.5933771 ] } },
{ "type": "Feature", "properties": { "NID": "acee098f69984f63b11d705d0bb9cd99", "STNENNAME": "Wendy", "STNTYPE": "Unknown", "STNUSR1ENA": "Canadian National", "TRACKCLASS": "Main" }, "geometry": { "type": "Point", "coordinates": [ -118.7181147, 55.7530802 ] } },
{ "type": "Feature", "properties": { "NID": "a5db7001968843e5978b7ce069adaac2", "STNENNAME": "Springburn", "STNTYPE": "Unknown", "STNUSR1ENA": "Canadian National", "TRACKCLASS": "Main" }, "geometry": { "type": "Point", "coordinates": [ -116.9144319, 55.9329637 ] } },
{ "type": "Feature", "properties": { "NID": "e33889e1e08b42a9a5f21823c9a61581", "STNENNAME": "Fabyan", "STNTYPE": "Unknown", "STNUSR1ENA": "Canadian National", "TRACKCLASS": "Main" }, "geometry": { "type": "Point", "coordinates": [ -110.9934887, 52.8799328 ] } },
{ "type": "Feature", "properties": { "NID": "1ad5fa42397944cd85b1f257ecab9aa2", "STNENNAME": "Hutch Lake", "STNTYPE": "Unknown", "STNUSR1ENA": "Canadian National", "TRACKCLASS": "Main" }, "geometry": { "type": "Point", "coordinates": [ -117.2661429, 58.74782 ] } },
{ "type": "Feature", "properties": { "NID": "2887417882d54fcd9945e9122835dde7", "STNENNAME": "Edson East", "STNTYPE": "Freight", "STNUSR1ENA": "Canadian National", "TRACKCLASS": "Main" }, "geometry": { "type": "Point", "coordinates": [ -116.4076417, 53.5861937 ] } },
{ "type": "Feature", "properties": { "NID": "ff87fd55f6264290ac15efd166dacba1", "STNENNAME": "Indian Cabins", "STNTYPE": "Unknown", "STNUSR1ENA": "Canadian National", "TRACKCLASS": "Main" }, "geometry": { "type": "Point", "coordinates": [ -117.0440798, 59.8734499 ] } },
{ "type": "Feature", "properties": { "NID": "dcecd8bc0c624d50a3df420cb0d1bea9", "STNENNAME": "Hythe", "STNTYPE": "Freight", "STNUSR1ENA": "Canadian National", "TRACKCLASS": "Main" }, "geometry": { "type": "Point", "coordinates": [ -119.5575207, 55.3267393 ] } },
{ "type": "Feature", "properties": { "NID": "648bf6a24c4f4860962ea476f1f26e2d", "STNENNAME": "Tofield", "STNTYPE": "Freight", "STNUSR1ENA": "Canadian National", "TRACKCLASS": "Main" }, "geometry": { "type": "Point", "coordinates": [ -112.6683273, 53.3675804 ] } },
{ "type": "Feature", "properties": { "NID": "04871c6f116d4163a1bbd5dc5957abac", "STNENNAME": "Rocky Mt House", "STNTYPE": "Unknown", "STNUSR1ENA": "Canadian National", "TRACKCLASS": "Main" }, "geometry": { "type": "Point", "coordinates": [ -114.9348062, 52.3734705 ] } },
{ "type": "Feature", "properties": { "NID": "bd37a96461d74a34954e11aeab386960", "STNENNAME": "Pass Creek", "STNTYPE": "Unknown", "STNUSR1ENA": "Canadian National", "TRACKCLASS": "Main" }, "geometry": { "type": "Point", "coordinates": [ -116.8904421, 54.2272515 ] } },
{ "type": "Feature", "properties": { "NID": "c721ad62b1b8472cb7a151a652679c02", "STNENNAME": "Ferintosh", "STNTYPE": "Unknown", "STNUSR1ENA": "Canadian National", "TRACKCLASS": "Main" }, "geometry": { "type": "Point", "coordinates": [ -112.9745495, 52.7664087 ] } },
{ "type": "Feature", "properties": { "NID": "d0f79fc427c7457e8c6d64e939165254", "STNENNAME": "Bailey", "STNTYPE": "Unknown", "STNUSR1ENA": "Canadian National", "TRACKCLASS": "Main" }, "geometry": { "type": "Point", "coordinates": [ -113.3848358, 53.5764116 ] } },
{ "type": "Feature", "properties": { "NID": "d5a4882c6564415eadcbb1ae44857cb3", "STNENNAME": "Westlock", "STNTYPE": "Freight", "STNUSR1ENA": "Canadian National", "TRACKCLASS": "Main" }, "geometry": { "type": "Point", "coordinates": [ -113.8625259, 54.1565654 ] } },
{ "type": "Feature", "properties": { "NID": "667902f2e4794b55a663aab527be0e47", "STNENNAME": "Calahoo", "STNTYPE": "Unknown", "STNUSR1ENA": "Canadian National", "TRACKCLASS": "Main" }, "geometry": { "type": "Point", "coordinates": [ -113.9602193, 53.7072707 ] } },
{ "type": "Feature", "properties": { "NID": "8c7c144700ec460c8e2a8efe56cffea9", "STNENNAME": "Swalwell", "STNTYPE": "Unknown", "STNUSR1ENA": "Canadian National", "TRACKCLASS": "Main" }, "geometry": { "type": "Point", "coordinates": [ -113.3180251, 51.5576415 ] } },
{ "type": "Feature", "properties": { "NID": "9d92cd4b1ed64bc988c946545373c436", "STNENNAME": "Three Hills", "STNTYPE": "Freight", "STNUSR1ENA": "Canadian National", "TRACKCLASS": "Main" }, "geometry": { "type": "Point", "coordinates": [ -113.2738437, 51.706803 ] } },
{ "type": "Feature", "properties": { "NID": "58743f35c8744c7bb966793e43df38b1", "STNENNAME": "Canyon Creek", "STNTYPE": "Unknown", "STNUSR1ENA": "Canadian National", "TRACKCLASS": "Main" }, "geometry": { "type": "Point", "coordinates": [ -115.1010357, 55.3731396 ] } },
{ "type": "Feature", "properties": { "NID": "f4efddf6d3784b0eb7a0983de21ce2a8", "STNENNAME": "Beamer Junction", "STNTYPE": "Unknown", "STNUSR1ENA": "Canadian National", "TRACKCLASS": "Main" }, "geometry": { "type": "Point", "coordinates": [ -113.1802249, 53.7586656 ] } },
{ "type": "Feature", "properties": { "NID": "2e1d37c6143f4e6f9741130818e3c14b", "STNENNAME": "Ardrossan", "STNTYPE": "Unknown", "STNUSR1ENA": "Canadian National", "TRACKCLASS": "Main" }, "geometry": { "type": "Point", "coordinates": [ -113.1442997, 53.5500461 ] } },
{ "type": "Feature", "properties": { "NID": "026421f3de8e48d4a3d175127b8714e0", "STNENNAME": "Wildwood", "STNTYPE": "Freight", "STNUSR1ENA": "Canadian National", "TRACKCLASS": "Main" }, "geometry": { "type": "Point", "coordinates": [ -115.2397075, 53.6102352 ] } },
{ "type": "Feature", "properties": { "NID": "7efe10e8c9444061907dae610995dbcf", "STNENNAME": "Ellscott", "STNTYPE": "Unknown", "STNUSR1ENA": "Canadian National", "TRACKCLASS": "Main" }, "geometry": { "type": "Point", "coordinates": [ -112.899277, 54.5018473 ] } },
{ "type": "Feature", "properties": { "NID": "e4913d7bfe434fe0b9efe937d1c377a1", "STNENNAME": "Grimshaw", "STNTYPE": "Freight", "STNUSR1ENA": "Canadian National", "TRACKCLASS": "Main" }, "geometry": { "type": "Point", "coordinates": [ -117.6004692, 56.1938291 ] } },
{ "type": "Feature", "properties": { "NID": "3daadad0a8604f579e61dd544cb5f8bb", "STNENNAME": "Mundare", "STNTYPE": "Unknown", "STNUSR1ENA": "Canadian National", "TRACKCLASS": "Main" }, "geometry": { "type": "Point", "coordinates": [ -112.3412112, 53.5924141 ] } },
{ "type": "Feature", "properties": { "NID": "2ba3407d23124ad2a7c1d406ebe46ec0", "STNENNAME": "Mannville", "STNTYPE": "Unknown", "STNUSR1ENA": "Canadian National", "TRACKCLASS": "Main" }, "geometry": { "type": "Point", "coordinates": [ -111.1790599, 53.3367498 ] } },
{ "type": "Feature", "properties": { "NID": "5a4b9a575b6c43ad95df489cb2def142", "STNENNAME": "Erith", "STNTYPE": "Unknown", "STNUSR1ENA": "Canadian National", "TRACKCLASS": "Main" }, "geometry": { "type": "Point", "coordinates": [ -116.681255, 53.411335 ] } },
{ "type": "Feature", "properties": { "NID": "18175a6eae4d4b668d2724bfb632efe8", "STNENNAME": "Duagh", "STNTYPE": "Freight", "STNUSR1ENA": "Canadian National", "TRACKCLASS": "Main" }, "geometry": { "type": "Point", "coordinates": [ -113.3809716, 53.7262689 ] } },
{ "type": "Feature", "properties": { "NID": "3c98932d089749b6a7c0177c208b620c", "STNENNAME": "Pedley", "STNTYPE": "Unknown", "STNUSR1ENA": "Canadian National", "TRACKCLASS": "Main" }, "geometry": { "type": "Point", "coordinates": [ -117.442547, 53.4655199 ] } },
{ "type": "Feature", "properties": { "NID": "ddc4ef44f4c24706ad63ce7e1d34ea9e", "STNENNAME": "Home", "STNTYPE": "Freight", "STNUSR1ENA": "Canadian National", "TRACKCLASS": "Main" }, "geometry": { "type": "Point", "coordinates": [ -118.0837846, 52.8713451 ] } },
{ "type": "Feature", "properties": { "NID": "63ae3025123e4661936fffbba68d7a41", "STNENNAME": "Philomena", "STNTYPE": "Unknown", "STNUSR1ENA": "Canadian National", "TRACKCLASS": "Main" }, "geometry": { "type": "Point", "coordinates": [ -111.6192179, 55.174655 ] } },
{ "type": "Feature", "properties": { "NID": "7fb54143a39d45e99cdb999a987ee3a4", "STNENNAME": "Ross Junction", "STNTYPE": "Unknown", "STNUSR1ENA": "Canadian National", "TRACKCLASS": "Main" }, "geometry": { "type": "Point", "coordinates": [ -113.1744654, 53.7609203 ] } },
{ "type": "Feature", "properties": { "NID": "52f9596355fb4f129652cbd189d07109", "STNENNAME": "Eskimo", "STNTYPE": "Unknown", "STNUSR1ENA": "Canadian National", "TRACKCLASS": "Main" }, "geometry": { "type": "Point", "coordinates": [ -110.0405824, 53.2815789 ] } },
{ "type": "Feature", "properties": { "NID": "a419d57c20fd40bcbf28fc1cb5596d7d", "STNENNAME": "Trout", "STNTYPE": "Unknown", "STNUSR1ENA": "Canadian National", "TRACKCLASS": "Main" }, "geometry": { "type": "Point", "coordinates": [ -113.4139887, 53.6002934 ] } },
{ "type": "Feature", "properties": { "NID": "e50243a83d1544678ab3400072343cbe", "STNENNAME": "Slavey Creek", "STNTYPE": "Unknown", "STNUSR1ENA": "Canadian National", "TRACKCLASS": "Main" }, "geometry": { "type": "Point", "coordinates": [ -117.5112583, 59.2087178 ] } },
{ "type": "Feature", "properties": { "NID": "b252c0b877394f31a320bccf0bdb3690", "STNENNAME": "Flatbush", "STNTYPE": "Unknown", "STNUSR1ENA": "Canadian National", "TRACKCLASS": "Main" }, "geometry": { "type": "Point", "coordinates": [ -114.1573072, 54.6852235 ] } },
{ "type": "Feature", "properties": { "NID": "458982028ca1489b953bc514511255ac", "STNENNAME": "Bereska", "STNTYPE": "Unknown", "STNUSR1ENA": "Canadian National", "TRACKCLASS": "Main" }, "geometry": { "type": "Point", "coordinates": [ -113.1255965, 52.4443042 ] } },
{ "type": "Feature", "properties": { "NID": "c7334c71d811426fb0fda8a5e029d567", "STNENNAME": "McLennan", "STNTYPE": "Freight", "STNUSR1ENA": "Canadian National", "TRACKCLASS": "Main" }, "geometry": { "type": "Point", "coordinates": [ -116.8973768, 55.7077631 ] } },
{ "type": "Feature", "properties": { "NID": "b19bd14cdc984394b543926e9544c120", "STNENNAME": "Kiron", "STNTYPE": "Unknown", "STNUSR1ENA": "Canadian National", "TRACKCLASS": "Main" }, "geometry": { "type": "Point", "coordinates": [ -112.6945017, 52.9247421 ] } },
{ "type": "Feature", "properties": { "NID": "5bda6fd34cd94cf1970698d14418b081", "STNENNAME": "East Junction", "STNTYPE": "Unknown", "STNUSR1ENA": "Canadian National", "TRACKCLASS": "Main" }, "geometry": { "type": "Point", "coordinates": [ -113.4352365, 53.5870475 ] } },
{ "type": "Feature", "properties": { "NID": "56c72a68596b428ca2a3b662c9bd5b67", "STNENNAME": "Grande Prairie West", "STNTYPE": "Unknown", "STNUSR1ENA": "Canadian National", "TRACKCLASS": "Main" }, "geometry": { "type": "Point", "coordinates": [ -118.8465217, 55.1605613 ] } },
{ "type": "Feature", "properties": { "NID": "7ff5b474690443dc967f8e4f13f0d05d", "STNENNAME": "Tweedie", "STNTYPE": "Unknown", "STNUSR1ENA": "Canadian National", "TRACKCLASS": "Main" }, "geometry": { "type": "Point", "coordinates": [ -111.7888145, 54.8876106 ] } },
{ "type": "Feature", "properties": { "NID": "8b2a75b6705e4d03b48e4794b7f7e561", "STNENNAME": "Saulteaux", "STNTYPE": "Unknown", "STNUSR1ENA": "Canadian National", "TRACKCLASS": "Main" }, "geometry": { "type": "Point", "coordinates": [ -114.3216702, 55.2375277 ] } },
{ "type": "Feature", "properties": { "NID": "9299b940b7a14501b0a6540d0f454f03", "STNENNAME": "Waskatenau", "STNTYPE": "Unknown", "STNUSR1ENA": "Canadian National", "TRACKCLASS": "Main" }, "geometry": { "type": "Point", "coordinates": [ -112.813319, 54.0927725 ] } },
{ "type": "Feature", "properties": { "NID": "22fc57ae64b24c918ae4216e8dc1404f", "STNENNAME": "Morinville", "STNTYPE": "Unknown", "STNUSR1ENA": "Canadian National", "TRACKCLASS": "Main" }, "geometry": { "type": "Point", "coordinates": [ -113.6325663, 53.7912471 ] } },
{ "type": "Feature", "properties": { "NID": "b16dbe0671974ffc985de4c8cfe3ae89", "STNENNAME": "Alix", "STNTYPE": "Freight", "STNUSR1ENA": "Canadian National", "TRACKCLASS": "Main" }, "geometry": { "type": "Point", "coordinates": [ -113.1865977, 52.3911183 ] } },
{ "type": "Feature", "properties": { "NID": "1d9fefa38a60491d9e4ff0b72f04c5d5", "STNENNAME": "Grace", "STNTYPE": "Unknown", "STNUSR1ENA": "Canadian National", "TRACKCLASS": "Main" }, "geometry": { "type": "Point", "coordinates": [ -113.3808734, 53.6480759 ] } },
{ "type": "Feature", "properties": { "NID": "654304bb5b234b0bb4f1e66496b12653", "STNENNAME": "Henderson", "STNTYPE": "Unknown", "STNUSR1ENA": "Canadian National", "TRACKCLASS": "Main" }, "geometry": { "type": "Point", "coordinates": [ -116.8770416, 54.3199555 ] } },
{ "type": "Feature", "properties": { "NID": "6e6b51702a254fe3bed02cadd4f7ddcb", "STNENNAME": "Uncas", "STNTYPE": "Unknown", "STNUSR1ENA": "Canadian National", "TRACKCLASS": "Main" }, "geometry": { "type": "Point", "coordinates": [ -113.0249987, 53.4963625 ] } },
{ "type": "Feature", "properties": { "NID": "49ff7135cf9246b18423ab68b27d0064", "STNENNAME": "Dalehurst", "STNTYPE": "Unknown", "STNUSR1ENA": "Canadian National", "TRACKCLASS": "Main" }, "geometry": { "type": "Point", "coordinates": [ -117.3671302, 53.4986189 ] } },
{ "type": "Feature", "properties": { "NID": "e740dc4b5fb244f7a7ddada72550f237", "STNENNAME": "Anzac", "STNTYPE": "Unknown", "STNUSR1ENA": "Canadian National", "TRACKCLASS": "Main" }, "geometry": { "type": "Point", "coordinates": [ -111.037219, 56.4502058 ] } },
{ "type": "Feature", "properties": { "NID": "e847f847c6d64b749de4a51706894d02", "STNENNAME": "Aurora", "STNTYPE": "Unknown", "STNUSR1ENA": "Canadian National", "TRACKCLASS": "Main" }, "geometry": { "type": "Point", "coordinates": [ -117.255562, 58.4266775 ] } },
{ "type": "Feature", "properties": { "NID": "d6262171ae584c488b36fb76ea5cfa59", "STNENNAME": "River Bend", "STNTYPE": "Unknown", "STNUSR1ENA": "Canadian National", "TRACKCLASS": "Main" }, "geometry": { "type": "Point", "coordinates": [ -113.3305953, 53.6473989 ] } },
{ "type": "Feature", "properties": { "NID": "134b9d15c34d48489b7e502e33ab4ac6", "STNENNAME": "Kitscoty", "STNTYPE": "Unknown", "STNUSR1ENA": "Canadian National", "TRACKCLASS": "Main" }, "geometry": { "type": "Point", "coordinates": [ -110.3350947, 53.3403117 ] } },
{ "type": "Feature", "properties": { "NID": "cac24441b135447ca1e9d70f71d43b8b", "STNENNAME": "Chauvin", "STNTYPE": "Unknown", "STNUSR1ENA": "Canadian National", "TRACKCLASS": "Main" }, "geometry": { "type": "Point", "coordinates": [ -110.1426813, 52.6916745 ] } },
{ "type": "Feature", "properties": { "NID": "0e19d55779954dd28c9e5f0979e31e3e", "STNENNAME": "Driftpile", "STNTYPE": "Unknown", "STNUSR1ENA": "Canadian National", "TRACKCLASS": "Main" }, "geometry": { "type": "Point", "coordinates": [ -115.759837, 55.3425124 ] } },
{ "type": "Feature", "properties": { "NID": "985927149f7a4389bf56aed53573a3fa", "STNENNAME": "Looma", "STNTYPE": "Unknown", "STNUSR1ENA": "Canadian National", "TRACKCLASS": "Main" }, "geometry": { "type": "Point", "coordinates": [ -113.2494542, 53.3556919 ] } },
{ "type": "Feature", "properties": { "NID": "850f9070b5824df59615940e53550022", "STNENNAME": "Morin Junction", "STNTYPE": "Unknown", "STNUSR1ENA": "Canadian National", "TRACKCLASS": "Main" }, "geometry": { "type": "Point", "coordinates": [ -113.6473297, 53.7950742 ] } },
{ "type": "Feature", "properties": { "NID": "68200ffca6ef4c1b94948204922b2bb1", "STNENNAME": "Innisfree", "STNTYPE": "Unknown", "STNUSR1ENA": "Canadian National", "TRACKCLASS": "Main" }, "geometry": { "type": "Point", "coordinates": [ -111.5122719, 53.3729939 ] } },
{ "type": "Feature", "properties": { "NID": "9e46f39ddad14a90bef5075a71866607", "STNENNAME": "Delia", "STNTYPE": "Freight", "STNUSR1ENA": "Canadian National", "TRACKCLASS": "Main" }, "geometry": { "type": "Point", "coordinates": [ -112.3715049, 51.6300703 ] } },
{ "type": "Feature", "properties": { "NID": "6cdc7e0f79aa4414a80762f34e63285a", "STNENNAME": "Woking", "STNTYPE": "Unknown", "STNUSR1ENA": "Canadian National", "TRACKCLASS": "Main" }, "geometry": { "type": "Point", "coordinates": [ -118.7740182, 55.5962182 ] } },
{ "type": "Feature", "properties": { "NID": "ecc4a7e80c594913a496586983c02a04", "STNENNAME": "Roma", "STNTYPE": "Unknown", "STNUSR1ENA": "Canadian National", "TRACKCLASS": "Main" }, "geometry": { "type": "Point", "coordinates": [ -117.4219504, 56.2063425 ] } },
{ "type": "Feature", "properties": { "NID": "030f4e4b79044ed4a5898a834b2b1f7a", "STNENNAME": "Rockyford", "STNTYPE": "Unknown", "STNUSR1ENA": "Canadian National", "TRACKCLASS": "Main" }, "geometry": { "type": "Point", "coordinates": [ -113.1404801, 51.2324686 ] } },
{ "type": "Feature", "properties": { "NID": "f7bc59e53a344d43ace3fef9d104ed49", "STNENNAME": "Irricana", "STNTYPE": "Unknown", "STNUSR1ENA": "Canadian National", "TRACKCLASS": "Main" }, "geometry": { "type": "Point", "coordinates": [ -113.6111126, 51.3235066 ] } },
{ "type": "Feature", "properties": { "NID": "1b5d462522da49eb932a1047de7862d0", "STNENNAME": "Kinuso", "STNTYPE": "Unknown", "STNUSR1ENA": "Canadian National", "TRACKCLASS": "Main" }, "geometry": { "type": "Point", "coordinates": [ -115.4370303, 55.333319 ] } },
{ "type": "Feature", "properties": { "NID": "a0622cd28f6d49a9b8ac5bc11613ab9d", "STNENNAME": "Joussard", "STNTYPE": "Unknown", "STNUSR1ENA": "Canadian National", "TRACKCLASS": "Main" }, "geometry": { "type": "Point", "coordinates": [ -115.9188728, 55.3702209 ] } },
{ "type": "Feature", "properties": { "NID": "9b3bef17a10844469d8e4a10687c1adc", "STNENNAME": "Big Eddy", "STNTYPE": "Unknown", "STNUSR1ENA": "Canadian National", "TRACKCLASS": "Main" }, "geometry": { "type": "Point", "coordinates": [ -116.5689713, 53.5548019 ] } },
{ "type": "Feature", "properties": { "NID": "f1960f726d6140da8bc47feb3f298dc0", "STNENNAME": "Whiteman", "STNTYPE": "Unknown", "STNUSR1ENA": "Canadian National", "TRACKCLASS": "Main" }, "geometry": { "type": "Point", "coordinates": [ -115.5971914, 54.1417834 ] } },
{ "type": "Feature", "properties": { "NID": "78f04f4e558e4e39b5bddc9d0fae6612", "STNENNAME": "Hawkhills", "STNTYPE": "Unknown", "STNUSR1ENA": "Canadian National", "TRACKCLASS": "Main" }, "geometry": { "type": "Point", "coordinates": [ -117.4251389, 57.2463098 ] } },
{ "type": "Feature", "properties": { "NID": "86d668b93d634e4cbf28d658de0a3d21", "STNENNAME": "Donnelly", "STNTYPE": "Unknown", "STNUSR1ENA": "Canadian National", "TRACKCLASS": "Main" }, "geometry": { "type": "Point", "coordinates": [ -117.1120906, 55.7300726 ] } },
{ "type": "Feature", "properties": { "NID": "5c5e5e5a86424497bef8b0c502cb1b6a", "STNENNAME": "Nampa", "STNTYPE": "Freight", "STNUSR1ENA": "Canadian National", "TRACKCLASS": "Main" }, "geometry": { "type": "Point", "coordinates": [ -117.1398063, 56.0407642 ] } },
{ "type": "Feature", "properties": { "NID": "a8fd9c6433db429b981e4faad31036fa", "STNENNAME": "New Sarepta", "STNTYPE": "Unknown", "STNUSR1ENA": "Canadian National", "TRACKCLASS": "Main" }, "geometry": { "type": "Point", "coordinates": [ -113.142957, 53.2724442 ] } },
{ "type": "Feature", "properties": { "NID": "0bfd99cd3cd040868b2bea002f77e1bb", "STNENNAME": "Entrance", "STNTYPE": "Unknown", "STNUSR1ENA": "Canadian National", "TRACKCLASS": "Main" }, "geometry": { "type": "Point", "coordinates": [ -117.6904612, 53.3738581 ] } },
{ "type": "Feature", "properties": { "NID": "9ce30df4738c474f8290d436d4a1996f", "STNENNAME": "Rosedale", "STNTYPE": "Unknown", "STNUSR1ENA": "Canadian National", "TRACKCLASS": "Main" }, "geometry": { "type": "Point", "coordinates": [ -112.6312657, 51.4204576 ] } },
{ "type": "Feature", "properties": { "NID": "b315232d6f624aba9e4f44e17e88a5ba", "STNENNAME": "Marvin", "STNTYPE": "Unknown", "STNUSR1ENA": "Canadian National", "TRACKCLASS": "Main" }, "geometry": { "type": "Point", "coordinates": [ -111.1088645, 55.7071566 ] } },
{ "type": "Feature", "properties": { "NID": "15f0c398c843434494308571d2539ca4", "STNENNAME": "Dinosaur Junction", "STNTYPE": "Unknown", "STNUSR1ENA": "Canadian National", "TRACKCLASS": "Main" }, "geometry": { "type": "Point", "coordinates": [ -112.723774, 51.561591 ] } },
{ "type": "Feature", "properties": { "NID": "f29eba20ae7c4a8a86f7f3ba167a0e99", "STNENNAME": "Huallen", "STNTYPE": "Unknown", "STNUSR1ENA": "Canadian National", "TRACKCLASS": "Main" }, "geometry": { "type": "Point", "coordinates": [ -119.2894267, 55.1631406 ] } },
{ "type": "Feature", "properties": { "NID": "d1a140192fbe41c79bd1c3dc7173cbba", "STNENNAME": "Joffre", "STNTYPE": "Unknown", "STNUSR1ENA": "Canadian National", "TRACKCLASS": "Main" }, "geometry": { "type": "Point", "coordinates": [ -113.5398504, 52.3357427 ] } },
{ "type": "Feature", "properties": { "NID": "94666311c88b4b10994df1d4c1afd7a4", "STNENNAME": "Hylo", "STNTYPE": "Unknown", "STNUSR1ENA": "Canadian National", "TRACKCLASS": "Main" }, "geometry": { "type": "Point", "coordinates": [ -112.2151763, 54.6796005 ] } },
{ "type": "Feature", "properties": { "NID": "d0dab001908140ffa0af9a4f7af0548f", "STNENNAME": "Imperial Mills", "STNTYPE": "Unknown", "STNUSR1ENA": "Canadian National", "TRACKCLASS": "Main" }, "geometry": { "type": "Point", "coordinates": [ -111.7342716, 54.9981828 ] } },
{ "type": "Feature", "properties": { "NID": "5d84b72f923d47679693e05e29639d41", "STNENNAME": "Hotchkiss", "STNTYPE": "Unknown", "STNUSR1ENA": "Canadian National", "TRACKCLASS": "Main" }, "geometry": { "type": "Point", "coordinates": [ -117.5756353, 57.095071 ] } },
{ "type": "Feature", "properties": { "NID": "6244d153ef6b4f938e984ec89fa345d6", "STNENNAME": "Prentiss", "STNTYPE": "Unknown", "STNUSR1ENA": "Canadian National", "TRACKCLASS": "Main" }, "geometry": { "type": "Point", "coordinates": [ -113.6238727, 52.3730906 ] } },
{ "type": "Feature", "properties": { "NID": "3555747c836e4993ad9fe7a9c2ea5281", "STNENNAME": "Busby", "STNTYPE": "Unknown", "STNUSR1ENA": "Canadian National", "TRACKCLASS": "Main" }, "geometry": { "type": "Point", "coordinates": [ -113.8913784, 53.9410523 ] } },
{ "type": "Feature", "properties": { "NID": "003754e4a384420bb186530a0e0bddd0", "STNENNAME": "Devenish", "STNTYPE": "Unknown", "STNUSR1ENA": "Canadian National", "TRACKCLASS": "Main" }, "geometry": { "type": "Point", "coordinates": [ -111.1946225, 55.5278762 ] } },
{ "type": "Feature", "properties": { "NID": "89d30e21887442c3a9508ae6e276bbcf", "STNENNAME": "Wembley", "STNTYPE": "Unknown", "STNUSR1ENA": "Canadian National", "TRACKCLASS": "Main" }, "geometry": { "type": "Point", "coordinates": [ -119.1469154, 55.1565884 ] } },
{ "type": "Feature", "properties": { "NID": "7f62f7ded7924ce7aaf7f9c1b09fbad8", "STNENNAME": "Albright", "STNTYPE": "Freight", "STNUSR1ENA": "Canadian National", "TRACKCLASS": "Main" }, "geometry": { "type": "Point", "coordinates": [ -119.500742, 55.2688536 ] } },
{ "type": "Feature", "properties": { "NID": "ba17eae633854d48b0f59aa267a3fbd8", "STNENNAME": "Leslieville", "STNTYPE": "Unknown", "STNUSR1ENA": "Canadian National", "TRACKCLASS": "Main" }, "geometry": { "type": "Point", "coordinates": [ -114.6066513, 52.3841384 ] } },
{ "type": "Feature", "properties": { "NID": "75635fe312554548960bd4c1cfcf8b75", "STNENNAME": "Poelzer", "STNTYPE": "Unknown", "STNUSR1ENA": "Canadian National", "TRACKCLASS": "Main" }, "geometry": { "type": "Point", "coordinates": [ -118.7656752, 55.141272 ] } },
{ "type": "Feature", "properties": { "NID": "8bbf285169084beeb15c36e174970caf", "STNENNAME": "Mayerthorpe", "STNTYPE": "Freight", "STNUSR1ENA": "Canadian National", "TRACKCLASS": "Main" }, "geometry": { "type": "Point", "coordinates": [ -115.13793, 53.9557161 ] } },
{ "type": "Feature", "properties": { "NID": "d253bd83de484ac6b89b0f1c9b5e027f", "STNENNAME": "Coalspur", "STNTYPE": "Unknown", "STNUSR1ENA": "Canadian National", "TRACKCLASS": "Main" }, "geometry": { "type": "Point", "coordinates": [ -117.011702, 53.1840912 ] } },
{ "type": "Feature", "properties": { "NID": "3a9158ecfcb249ca9386784d2568ece3", "STNENNAME": "Radway", "STNTYPE": "Unknown", "STNUSR1ENA": "Canadian National", "TRACKCLASS": "Main" }, "geometry": { "type": "Point", "coordinates": [ -112.9432125, 54.0592039 ] } },
{ "type": "Feature", "properties": { "NID": "00fe3ee5ee53423086f8f4f17d6ffdd9", "STNENNAME": "Ullin", "STNTYPE": "Unknown", "STNUSR1ENA": "Canadian National", "TRACKCLASS": "Main" }, "geometry": { "type": "Point", "coordinates": [ -115.0200525, 52.3584074 ] } },
{ "type": "Feature", "properties": { "NID": "f8cbbd080cdc408b8c6f64cbd35d2bff", "STNENNAME": "Gainford", "STNTYPE": "Unknown", "STNUSR1ENA": "Canadian National", "TRACKCLASS": "Main" }, "geometry": { "type": "Point", "coordinates": [ -114.791224, 53.5837448 ] } },
{ "type": "Feature", "properties": { "NID": "6e97cc5e491644c79382b969d5d962fb", "STNENNAME": "Margie", "STNTYPE": "Unknown", "STNUSR1ENA": "Canadian National", "TRACKCLASS": "Main" }, "geometry": { "type": "Point", "coordinates": [ -111.3316331, 55.4492109 ] } },
{ "type": "Feature", "properties": { "NID": "b9d1c56c5bc443baa398395ee060aca4", "STNENNAME": "Lac La Biche", "STNTYPE": "Freight", "STNUSR1ENA": "Canadian National", "TRACKCLASS": "Main" }, "geometry": { "type": "Point", "coordinates": [ -111.9755416, 54.7694655 ] } },
{ "type": "Feature", "properties": { "NID": "f69b13da9af6408b8c8676302747c5fa", "STNENNAME": "Burbank", "STNTYPE": "Unknown", "STNUSR1ENA": "Canadian National", "TRACKCLASS": "Main" }, "geometry": { "type": "Point", "coordinates": [ -113.7377785, 52.3704697 ] } },
{ "type": "Feature", "properties": { "NID": "50a1931108a04e2895bee9510f94023a", "STNENNAME": "Barr", "STNTYPE": "Unknown", "STNUSR1ENA": "Canadian National", "TRACKCLASS": "Main" }, "geometry": { "type": "Point", "coordinates": [ -110.8974182, 56.0870364 ] } },
{ "type": "Feature", "properties": { "NID": "d9d01f3b5f2e45aa918e7aefcc692967", "STNENNAME": "Grzanich", "STNTYPE": "Unknown", "STNUSR1ENA": "Canadian National", "TRACKCLASS": "Main" }, "geometry": { "type": "Point", "coordinates": [ -119.0348912, 54.0488062 ] } },
{ "type": "Feature", "properties": { "NID": "c8f30e017f9941fcb5b1b975233c7564", "STNENNAME": "Harris", "STNTYPE": "Unknown", "STNUSR1ENA": "Canadian National", "TRACKCLASS": "Main" }, "geometry": { "type": "Point", "coordinates": [ -113.1193674, 53.753236 ] } },
{ "type": "Feature", "properties": { "NID": "b0f216f063c84dbcaf2434414252a573", "STNENNAME": "Webster", "STNTYPE": "Unknown", "STNUSR1ENA": "Canadian National", "TRACKCLASS": "Main" }, "geometry": { "type": "Point", "coordinates": [ -118.6889254, 55.4421818 ] } },
{ "type": "Feature", "properties": { "NID": "a88c5e4ac7934fcc984e057fbbcdac5a", "STNENNAME": "Fort McMurray", "STNTYPE": "Unknown", "STNUSR1ENA": "Canadian National", "TRACKCLASS": "Main" }, "geometry": { "type": "Point", "coordinates": [ -111.1130371, 56.6338768 ] } },
{ "type": "Feature", "properties": { "NID": "7b345f40623c48378b82b373a0e9939a", "STNENNAME": "Alix Junction", "STNTYPE": "Unknown", "STNUSR1ENA": "Canadian National", "TRACKCLASS": "Main" }, "geometry": { "type": "Point", "coordinates": [ -113.2095061, 52.370292 ] } },
{ "type": "Feature", "properties": { "NID": "94aac8ae14e24c08bea226855a2c0b5a", "STNENNAME": "Peace Valley", "STNTYPE": "Unknown", "STNUSR1ENA": "Canadian National", "TRACKCLASS": "Main" }, "geometry": { "type": "Point", "coordinates": [ -117.2118869, 56.3530985 ] } },
{ "type": "Feature", "properties": { "NID": "7c360d2502b64cc492627da0caf3fcef", "STNENNAME": "Lakeland", "STNTYPE": "Unknown", "STNUSR1ENA": "Canadian National", "TRACKCLASS": "Main" }, "geometry": { "type": "Point", "coordinates": [ -112.8309109, 54.5760058 ] } },
{ "type": "Feature", "properties": { "NID": "9160ac9a7fa4433d8272b32e0c624fcf", "STNENNAME": "Bickerdike West", "STNTYPE": "Unknown", "STNUSR1ENA": "Canadian National", "TRACKCLASS": "Main" }, "geometry": { "type": "Point", "coordinates": [ -116.6678249, 53.5436411 ] } },
{ "type": "Feature", "properties": { "NID": "c75591e9e4c842c39d95638c3e0fe53b", "STNENNAME": "Camrose", "STNTYPE": "Freight", "STNUSR1ENA": "Canadian National", "TRACKCLASS": "Main" }, "geometry": { "type": "Point", "coordinates": [ -112.8124287, 53.0177501 ] } },
{ "type": "Feature", "properties": { "NID": "426f1325530142c0a9fd850b6806da66", "STNENNAME": "Devona", "STNTYPE": "Unknown", "STNUSR1ENA": "Canadian National", "TRACKCLASS": "Main" }, "geometry": { "type": "Point", "coordinates": [ -117.9993193, 53.1452666 ] } },
{ "type": "Feature", "properties": { "NID": "4450178ef19f41aead70e2a511778210", "STNENNAME": "MacArthur", "STNTYPE": "Unknown", "STNUSR1ENA": "Canadian National", "TRACKCLASS": "Main" }, "geometry": { "type": "Point", "coordinates": [ -114.0899924, 55.1705853 ] } },
{ "type": "Feature", "properties": { "NID": "8770644cad9f407fbc98f31514bcc9ed", "STNENNAME": "Edmonton Intermodal Terminal", "STNTYPE": "Intermodal", "STNUSR1ENA": "Canadian Pacific", "TRACKCLASS": "Main" }, "geometry": { "type": "Point", "coordinates": [ -113.4909173, 53.4739691 ] } },
{ "type": "Feature", "properties": { "NID": "684385301d734078bdaf551e8ef64894", "STNENNAME": "Calgary Intermodal Terminal", "STNTYPE": "Intermodal", "STNUSR1ENA": "Canadian Pacific", "TRACKCLASS": "Main" }, "geometry": { "type": "Point", "coordinates": [ -113.9522887, 50.9607206 ] } },
{ "type": "Feature", "properties": { "NID": "30c3045a77c34f10bb7369fcc5b29c00", "STNENNAME": "Jasper East", "STNTYPE": "Unknown", "STNUSR1ENA": "Canadian National", "TRACKCLASS": "Main" }, "geometry": { "type": "Point", "coordinates": [ -118.0719967, 52.8984471 ] } },
{ "type": "Feature", "properties": { "NID": "e4f737bbf4ed4cfaa89ab16bc2ece326", "STNENNAME": "Wagner", "STNTYPE": "Unknown", "STNUSR1ENA": "Canadian National", "TRACKCLASS": "Main" }, "geometry": { "type": "Point", "coordinates": [ -114.9833527, 55.3534241 ] } },
{ "type": "Feature", "properties": { "NID": "61c43c8a64b7418b80f701420159402d", "STNENNAME": "Vermilion", "STNTYPE": "Freight", "STNUSR1ENA": "Canadian National", "TRACKCLASS": "Main" }, "geometry": { "type": "Point", "coordinates": [ -110.8560395, 53.3521334 ] } },
{ "type": "Feature", "properties": { "NID": "a5c798602aa543e99318187c8ca7aee3", "STNENNAME": "Long Lake", "STNTYPE": "Unknown", "STNUSR1ENA": "Canadian National", "TRACKCLASS": "Main" }, "geometry": { "type": "Point", "coordinates": [ -111.0118864, 56.395867 ] } },
{ "type": "Feature", "properties": { "NID": "e3b34d6e1456498a9c5d8c1f87c7f26f", "STNENNAME": "Leddy", "STNTYPE": "Unknown", "STNUSR1ENA": "Canadian National", "TRACKCLASS": "Main" }, "geometry": { "type": "Point", "coordinates": [ -117.5322955, 56.3710848 ] } },
{ "type": "Feature", "properties": { "NID": "be06b9e8046e4fd696a4f75e2879585b", "STNENNAME": "Girouxville", "STNTYPE": "Unknown", "STNUSR1ENA": "Canadian National", "TRACKCLASS": "Main" }, "geometry": { "type": "Point", "coordinates": [ -117.3467721, 55.7537346 ] } },
{ "type": "Feature", "properties": { "NID": "d9ac680c8a574493bcc886511740b0b7", "STNENNAME": "Metis", "STNTYPE": "Unknown", "STNUSR1ENA": "Canadian National", "TRACKCLASS": "Main" }, "geometry": { "type": "Point", "coordinates": [ -117.365676, 58.1960631 ] } },
{ "type": "Feature", "properties": { "NID": "6ce5d60edbc54e08b4034a1f73b3874d", "STNENNAME": "Cazakoff", "STNTYPE": "Unknown", "STNUSR1ENA": "Canadian National", "TRACKCLASS": "Main" }, "geometry": { "type": "Point", "coordinates": [ -117.8523414, 53.3475694 ] } },
{ "type": "Feature", "properties": { "NID": "49552ba051db4599b669eb721fe82697", "STNENNAME": "Duvegan Junction", "STNTYPE": "Freight", "STNUSR1ENA": "Canadian National", "TRACKCLASS": "Main" }, "geometry": { "type": "Point", "coordinates": [ -113.5552125, 53.5836818 ] } },
{ "type": "Feature", "properties": { "NID": "f2fc57ad246f45eda2d5d6b9bd1990af", "STNENNAME": "Coal Valley", "STNTYPE": "Unknown", "STNUSR1ENA": "Canadian National", "TRACKCLASS": "Main" }, "geometry": { "type": "Point", "coordinates": [ -116.8540339, 53.1071905 ] } },
{ "type": "Feature", "properties": { "NID": "82dc4d748b1049b28dcfdace2e8864c7", "STNENNAME": "Bryan", "STNTYPE": "Unknown", "STNUSR1ENA": "Canadian National", "TRACKCLASS": "Main" }, "geometry": { "type": "Point", "coordinates": [ -116.9673128, 53.2441289 ] } },
{ "type": "Feature", "properties": { "NID": "1c1262986a9648d69cac40bdeac3012b", "STNENNAME": "Kemp River", "STNTYPE": "Unknown", "STNUSR1ENA": "Canadian National", "TRACKCLASS": "Main" }, "geometry": { "type": "Point", "coordinates": [ -117.4934088, 57.5447161 ] } },
{ "type": "Feature", "properties": { "NID": "4c95a3449892413182482d60eb3c16f2", "STNENNAME": "Horner", "STNTYPE": "Unknown", "STNUSR1ENA": "Canadian National", "TRACKCLASS": "Main" }, "geometry": { "type": "Point", "coordinates": [ -112.7786059, 54.6038528 ] } },
{ "type": "Feature", "properties": { "NID": "e41665e0599d4b6897828bb787b56c21", "STNENNAME": "Swan Landing", "STNTYPE": "Freight", "STNUSR1ENA": "Canadian National", "TRACKCLASS": "Main" }, "geometry": { "type": "Point", "coordinates": [ -117.8568109, 53.3041285 ] } },
{ "type": "Feature", "properties": { "NID": "fdf3bdbf227f4cb183b29afb5316e264", "STNENNAME": "St Paul Junction", "STNTYPE": "Unknown", "STNUSR1ENA": "Canadian National", "TRACKCLASS": "Main" }, "geometry": { "type": "Point", "coordinates": [ -113.3829681, 53.6196029 ] } },
{ "type": "Feature", "properties": { "NID": "e01596c8e05942b190543de8d4141af2", "STNENNAME": "Gateway", "STNTYPE": "Unknown", "STNUSR1ENA": "Canadian National", "TRACKCLASS": "Main" }, "geometry": { "type": "Point", "coordinates": [ -117.1130067, 58.5236129 ] } },
{ "type": "Feature", "properties": { "NID": "c4ca6e69454c49068c3b87dad8b91823", "STNENNAME": "English", "STNTYPE": "Unknown", "STNUSR1ENA": "Canadian National", "TRACKCLASS": "Main" }, "geometry": { "type": "Point", "coordinates": [ -118.0497353, 52.9235521 ] } },
{ "type": "Feature", "properties": { "NID": "d68d37b223c743cfa144d2c73e2251ae", "STNENNAME": "Edmonton", "STNTYPE": "Passenger Station", "STNUSR1ENA": "VIA Rail", "TRACKCLASS": "Main" }, "geometry": { "type": "Point", "coordinates": [ -113.5309196, 53.5788926 ] } },
{ "type": "Feature", "properties": { "NID": "14d8c2f5b77244f28ef9f3c7f5365bc3", "STNENNAME": "Geikie", "STNTYPE": "Unknown", "STNUSR1ENA": "Canadian National", "TRACKCLASS": "Main" }, "geometry": { "type": "Point", "coordinates": [ -118.2662596, 52.870485 ] } },
{ "type": "Feature", "properties": { "NID": "dfb9258e448445bdb4ff4ace6f903c70", "STNENNAME": "Blue Ridge", "STNTYPE": "Unknown", "STNUSR1ENA": "Canadian National", "TRACKCLASS": "Main" }, "geometry": { "type": "Point", "coordinates": [ -115.3755261, 54.1254484 ] } },
{ "type": "Feature", "properties": { "NID": "fce50ba8acff4ec1baaf170fca394f86", "STNENNAME": "Meander River", "STNTYPE": "Freight", "STNUSR1ENA": "Canadian National", "TRACKCLASS": "Main" }, "geometry": { "type": "Point", "coordinates": [ -117.6296036, 58.9887577 ] } },
{ "type": "Feature", "properties": { "NID": "1696ebf5ecc748748fd041a67ffb619c", "STNENNAME": "Greenshields", "STNTYPE": "Unknown", "STNUSR1ENA": "Canadian National", "TRACKCLASS": "Main" }, "geometry": { "type": "Point", "coordinates": [ -110.7537793, 52.7879083 ] } },
{ "type": "Feature", "properties": { "NID": "53cf60b399824cc9a9dfc73abdb406df", "STNENNAME": "Dixonville", "STNTYPE": "Unknown", "STNUSR1ENA": "Canadian National", "TRACKCLASS": "Main" }, "geometry": { "type": "Point", "coordinates": [ -117.5392366, 56.5404171 ] } },
{ "type": "Feature", "properties": { "NID": "69e54ea5c4024811aa99f236932a69a9", "STNENNAME": "Newbrook", "STNTYPE": "Unknown", "STNUSR1ENA": "Canadian National", "TRACKCLASS": "Main" }, "geometry": { "type": "Point", "coordinates": [ -112.9532759, 54.3282969 ] } },
{ "type": "Feature", "properties": { "NID": "c71f8c3a149c49488bac6bbbd5ee8bb3", "STNENNAME": "Harmon", "STNTYPE": "Unknown", "STNUSR1ENA": "Canadian National", "TRACKCLASS": "Main" }, "geometry": { "type": "Point", "coordinates": [ -115.7672091, 54.1489061 ] } },
{ "type": "Feature", "properties": { "NID": "f76ee06c83eb4d04a1d6cc5c391c4a2e", "STNENNAME": "Bruderheim", "STNTYPE": "Freight", "STNUSR1ENA": "Canadian National", "TRACKCLASS": "Main" }, "geometry": { "type": "Point", "coordinates": [ -112.9305976, 53.7989908 ] } },
{ "type": "Feature", "properties": { "NID": "c9bdff0ee9e24ba8b90662d829001b3b", "STNENNAME": "Assineau", "STNTYPE": "Unknown", "STNUSR1ENA": "Canadian National", "TRACKCLASS": "Main" }, "geometry": { "type": "Point", "coordinates": [ -115.1844716, 55.3729826 ] } },
{ "type": "Feature", "properties": { "NID": "998e7d36816a4a0f9c14c1bac159a485", "STNENNAME": "Vegreville", "STNTYPE": "Unknown", "STNUSR1ENA": "Canadian National", "TRACKCLASS": "Main" }, "geometry": { "type": "Point", "coordinates": [ -112.0645844, 53.502241 ] } },
{ "type": "Feature", "properties": { "NID": "067072a526854563a78f18f8ae7abc97", "STNENNAME": "Hinton", "STNTYPE": "Mixed", "STNUSR1ENA": "Canadian National", "TRACKCLASS": "Main" }, "geometry": { "type": "Point", "coordinates": [ -117.588049, 53.4009431 ] } },
{ "type": "Feature", "properties": { "NID": "453d81c362274360859bbfed26d622ba", "STNENNAME": "Bickerdike East", "STNTYPE": "Unknown", "STNUSR1ENA": "Canadian National", "TRACKCLASS": "Main" }, "geometry": { "type": "Point", "coordinates": [ -116.6155387, 53.5445154 ] } },
{ "type": "Feature", "properties": { "NID": "70c773423cc24307a799560f4a1215a2", "STNENNAME": "Blackfoot", "STNTYPE": "Freight", "STNUSR1ENA": "Canadian National", "TRACKCLASS": "Main" }, "geometry": { "type": "Point", "coordinates": [ -110.1702665, 53.2871607 ] } },
{ "type": "Feature", "properties": { "NID": "4af1508d1b434a7780529dd2c985f891", "STNENNAME": "Edison", "STNTYPE": "Unknown", "STNUSR1ENA": "Canadian National", "TRACKCLASS": "Main" }, "geometry": { "type": "Point", "coordinates": [ -113.0548627, 53.7732361 ] } },
{ "type": "Feature", "properties": { "NID": "dd0d888cf2bb471d9c78b4d91f221a3f", "STNENNAME": "Barnegat", "STNTYPE": "Unknown", "STNUSR1ENA": "Canadian National", "TRACKCLASS": "Main" }, "geometry": { "type": "Point", "coordinates": [ -111.8260705, 54.7909127 ] } },
{ "type": "Feature", "properties": { "NID": "196318abf8114026b508ecdb2e75786a", "STNENNAME": "Elspeth", "STNTYPE": "Unknown", "STNUSR1ENA": "Canadian National", "TRACKCLASS": "Main" }, "geometry": { "type": "Point", "coordinates": [ -114.2194906, 52.3076146 ] } },
{ "type": "Feature", "properties": { "NID": "712e5fb37b8d4284935a99e6aac22ec8", "STNENNAME": "Tolstad", "STNTYPE": "Unknown", "STNUSR1ENA": "Canadian National", "TRACKCLASS": "Main" }, "geometry": { "type": "Point", "coordinates": [ -118.5589255, 55.0108161 ] } },
{ "type": "Feature", "properties": { "NID": "d1d2720c206043cb9a3811dfb9e7a20b", "STNENNAME": "Falher", "STNTYPE": "Freight", "STNUSR1ENA": "Canadian National", "TRACKCLASS": "Main" }, "geometry": { "type": "Point", "coordinates": [ -117.1985644, 55.738868 ] } },
{ "type": "Feature", "properties": { "NID": "96c22e7d47d44137a4f614ad8c28453d", "STNENNAME": "Jarvie", "STNTYPE": "Unknown", "STNUSR1ENA": "Canadian National", "TRACKCLASS": "Main" }, "geometry": { "type": "Point", "coordinates": [ -113.992499, 54.4590849 ] } },
{ "type": "Feature", "properties": { "NID": "94468c22d97d4e42855382f672023e97", "STNENNAME": "East Edmonton", "STNTYPE": "Freight", "STNUSR1ENA": "Canadian National", "TRACKCLASS": "Main" }, "geometry": { "type": "Point", "coordinates": [ -113.379276, 53.5423389 ] } },
{ "type": "Feature", "properties": { "NID": "b21f20a4e6fd450990bb075585cabc97", "STNENNAME": "Bill Harte", "STNTYPE": "Unknown", "STNUSR1ENA": "Canadian National", "TRACKCLASS": "Main" }, "geometry": { "type": "Point", "coordinates": [ -113.5057956, 51.4012118 ] } },
{ "type": "Feature", "properties": { "NID": "0bcf181f6d414bbda8bab49a7144e1c1", "STNENNAME": "Gibbons", "STNTYPE": "Freight", "STNUSR1ENA": "Canadian National", "TRACKCLASS": "Main" }, "geometry": { "type": "Point", "coordinates": [ -113.331749, 53.8282509 ] } },
{ "type": "Feature", "properties": { "NID": "fe4bb8e9326e4869b80e6611974df89a", "STNENNAME": "Islay", "STNTYPE": "Unknown", "STNUSR1ENA": "Canadian National", "TRACKCLASS": "Main" }, "geometry": { "type": "Point", "coordinates": [ -110.5397643, 53.3911828 ] } },
{ "type": "Feature", "properties": { "NID": "e5ee678a8f224dd4ad312a50ff923506", "STNENNAME": "Smith", "STNTYPE": "Freight", "STNUSR1ENA": "Canadian National", "TRACKCLASS": "Main" }, "geometry": { "type": "Point", "coordinates": [ -114.0479074, 55.1632797 ] } },
{ "type": "Feature", "properties": { "NID": "26bd453e77d34fb5b9a3c41622ff45c4", "STNENNAME": "Willetts", "STNTYPE": "Unknown", "STNUSR1ENA": "Canadian National", "TRACKCLASS": "Main" }, "geometry": { "type": "Point", "coordinates": [ -117.4684768, 56.2494365 ] } },
{ "type": "Feature", "properties": { "NID": "c7a727ce36134c11879a132f16ceb2e8", "STNENNAME": "Watts", "STNTYPE": "Unknown", "STNUSR1ENA": "Canadian National", "TRACKCLASS": "Main" }, "geometry": { "type": "Point", "coordinates": [ -112.090386, 51.6612686 ] } },
{ "type": "Feature", "properties": { "NID": "56e302b0438b4fe98e8766b0ee3ba34f", "STNENNAME": "Lynch", "STNTYPE": "Unknown", "STNUSR1ENA": "Canadian National", "TRACKCLASS": "Main" }, "geometry": { "type": "Point", "coordinates": [ -116.7921016, 53.3823189 ] } },
{ "type": "Feature", "properties": { "NID": "6f4aa54379b541d4bda3822c7870169f", "STNENNAME": "Coronado", "STNTYPE": "Unknown", "STNUSR1ENA": "Canadian National", "TRACKCLASS": "Main" }, "geometry": { "type": "Point", "coordinates": [ -113.2948425, 53.8881932 ] } },
{ "type": "Feature", "properties": { "NID": "a6c00799e9234b169f5ee9e9564bf4b7", "STNENNAME": "Holloway West", "STNTYPE": "Freight", "STNUSR1ENA": "Canadian National", "TRACKCLASS": "Main" }, "geometry": { "type": "Point", "coordinates": [ -116.6565894, 53.507655 ] } },
{ "type": "Feature", "properties": { "NID": "b63d92bc87084e9988026a4ed479cfd6", "STNENNAME": "Strathcona", "STNTYPE": "Unknown", "STNUSR1ENA": "Canadian National", "TRACKCLASS": "Main" }, "geometry": { "type": "Point", "coordinates": [ -113.3853052, 53.5053312 ] } },
{ "type": "Feature", "properties": { "NID": "7421a54b908840f18a6da6a8fe00ee9d", "STNENNAME": "St Albert", "STNTYPE": "Unknown", "STNUSR1ENA": "Canadian National", "TRACKCLASS": "Main" }, "geometry": { "type": "Point", "coordinates": [ -113.639084, 53.6329351 ] } },
{ "type": "Feature", "properties": { "NID": "43ae332da7534e69a16e54f7c506e2c2", "STNENNAME": "Peers", "STNTYPE": "Unknown", "STNUSR1ENA": "Canadian National", "TRACKCLASS": "Main" }, "geometry": { "type": "Point", "coordinates": [ -115.9970046, 53.6622393 ] } },
{ "type": "Feature", "properties": { "NID": "1f0a40d5dfb641b39e6883637610ac56", "STNENNAME": "High Prairie", "STNTYPE": "Unknown", "STNUSR1ENA": "Canadian National", "TRACKCLASS": "Main" }, "geometry": { "type": "Point", "coordinates": [ -116.4934186, 55.4305998 ] } },
{ "type": "Feature", "properties": { "NID": "e6b2ef7cfb33496daf57f43aee9346c2", "STNENNAME": "Rosebud", "STNTYPE": "Freight", "STNUSR1ENA": "Canadian National", "TRACKCLASS": "Main" }, "geometry": { "type": "Point", "coordinates": [ -112.9512876, 51.2981344 ] } },
{ "type": "Feature", "properties": { "NID": "9bebe361b24846b9867b7795d11b9f4b", "STNENNAME": "Wainwright", "STNTYPE": "Mixed", "STNUSR1ENA": "Canadian National", "TRACKCLASS": "Main" }, "geometry": { "type": "Point", "coordinates": [ -110.8615922, 52.8316603 ] } },
{ "type": "Feature", "properties": { "NID": "b7ee933323674a45b6c31054ad27ab0b", "STNENNAME": "Faust", "STNTYPE": "Unknown", "STNUSR1ENA": "Canadian National", "TRACKCLASS": "Main" }, "geometry": { "type": "Point", "coordinates": [ -115.630587, 55.3175908 ] } },
{ "type": "Feature", "properties": { "NID": "b67788b960f24837bf71d13c7b4a1d11", "STNENNAME": "Vimy", "STNTYPE": "Unknown", "STNUSR1ENA": "Canadian National", "TRACKCLASS": "Main" }, "geometry": { "type": "Point", "coordinates": [ -116.9614279, 55.7369352 ] } },
{ "type": "Feature", "properties": { "NID": "4f2d7a89fce24dd39546c8e4c503bff2", "STNENNAME": "Briggs", "STNTYPE": "Unknown", "STNUSR1ENA": "Canadian National", "TRACKCLASS": "Main" }, "geometry": { "type": "Point", "coordinates": [ -113.817612, 52.3433279 ] } },
{ "type": "Feature", "properties": { "NID": "545889275fe645b088c4ccb230075f32", "STNENNAME": "Medicine Lodge", "STNTYPE": "Unknown", "STNUSR1ENA": "Canadian National", "TRACKCLASS": "Main" }, "geometry": { "type": "Point", "coordinates": [ -117.0115409, 53.5404364 ] } },
{ "type": "Feature", "properties": { "NID": "9bb5abea694641459db2df2e756690f0", "STNENNAME": "Mercoal", "STNTYPE": "Unknown", "STNUSR1ENA": "Canadian National", "TRACKCLASS": "Main" }, "geometry": { "type": "Point", "coordinates": [ -117.0952673, 53.1675968 ] } },
{ "type": "Feature", "properties": { "NID": "24ed0c1ad6f2477bbc817120396c5d8b", "STNENNAME": "Barlee", "STNTYPE": "Unknown", "STNUSR1ENA": "Canadian National", "TRACKCLASS": "Main" }, "geometry": { "type": "Point", "coordinates": [ -112.8138013, 53.0404461 ] } },
{ "type": "Feature", "properties": { "NID": "38a18e3b6b7a40698b7e8d4ba038818d", "STNENNAME": "Wolf Creek", "STNTYPE": "Unknown", "STNUSR1ENA": "Canadian National", "TRACKCLASS": "Main" }, "geometry": { "type": "Point", "coordinates": [ -116.2450567, 53.6401294 ] } },
{ "type": "Feature", "properties": { "NID": "466ea6b7464a49b18f677cc84bcf09f4", "STNENNAME": "Hargwen", "STNTYPE": "Unknown", "STNUSR1ENA": "Canadian National", "TRACKCLASS": "Main" }, "geometry": { "type": "Point", "coordinates": [ -117.1401193, 53.5442641 ] } },
{ "type": "Feature", "properties": { "NID": "c3c381446fe541a48736162b24affa20", "STNENNAME": "Delacour", "STNTYPE": "Unknown", "STNUSR1ENA": "Canadian National", "TRACKCLASS": "Main" }, "geometry": { "type": "Point", "coordinates": [ -113.7734176, 51.1520612 ] } },
{ "type": "Feature", "properties": { "NID": "8b336b6efa734dfaa1c7d2bd65e1362b", "STNENNAME": "Lavoy", "STNTYPE": "Unknown", "STNUSR1ENA": "Canadian National", "TRACKCLASS": "Main" }, "geometry": { "type": "Point", "coordinates": [ -111.8678668, 53.457359 ] } },
{ "type": "Feature", "properties": { "NID": "a5c02d62f75046038da3948a7100b1bb", "STNENNAME": "Holden", "STNTYPE": "Unknown", "STNUSR1ENA": "Canadian National", "TRACKCLASS": "Main" }, "geometry": { "type": "Point", "coordinates": [ -112.2383741, 53.2310776 ] } },
{ "type": "Feature", "properties": { "NID": "d6e850374ef84118924faa971866617b", "STNENNAME": "Manning", "STNTYPE": "Unknown", "STNUSR1ENA": "Canadian National", "TRACKCLASS": "Main" }, "geometry": { "type": "Point", "coordinates": [ -117.5824792, 56.9002937 ] } },
{ "type": "Feature", "properties": { "NID": "63b9cdae8ddf476a990319db681971b2", "STNENNAME": "Wynd", "STNTYPE": "Unknown", "STNUSR1ENA": "Canadian National", "TRACKCLASS": "Main" }, "geometry": { "type": "Point", "coordinates": [ -118.1288507, 52.8613816 ] } },
{ "type": "Feature", "properties": { "NID": "ec7745c21ea54d6cb94450ce614552e4", "STNENNAME": "Lutose", "STNTYPE": "Unknown", "STNUSR1ENA": "Canadian National", "TRACKCLASS": "Main" }, "geometry": { "type": "Point", "coordinates": [ -117.2489281, 59.4324088 ] } },
{ "type": "Feature", "properties": { "NID": "0eccb7092f2e47028fdea6d62244bd68", "STNENNAME": "Carvel", "STNTYPE": "Unknown", "STNUSR1ENA": "Canadian National", "TRACKCLASS": "Main" }, "geometry": { "type": "Point", "coordinates": [ -114.1909183, 53.5310248 ] } },
{ "type": "Feature", "properties": { "NID": "fd96ed23cedc4c6b81b99c9d1734f67a", "STNENNAME": "Tilley", "STNTYPE": "Unknown", "STNUSR1ENA": "Canadian National", "TRACKCLASS": "Main" }, "geometry": { "type": "Point", "coordinates": [ -113.3610296, 53.4788464 ] } },
{ "type": "Feature", "properties": { "NID": "2c7d300c5dce4afaa7298d2c6bf81229", "STNENNAME": "Leaman", "STNTYPE": "Freight", "STNUSR1ENA": "Canadian National", "TRACKCLASS": "Main" }, "geometry": { "type": "Point", "coordinates": [ -115.4875278, 53.6232733 ] } },
{ "type": "Feature", "properties": { "NID": "7d61ea86780844eda9ec87c41af19a7f", "STNENNAME": "Onoway", "STNTYPE": "Freight", "STNUSR1ENA": "Canadian National", "TRACKCLASS": "Main" }, "geometry": { "type": "Point", "coordinates": [ -114.1932248, 53.70412 ] } },
{ "type": "Feature", "properties": { "NID": "e64845034b6b48cbbfa389bed1011388", "STNENNAME": "Dimsdale", "STNTYPE": "Unknown", "STNUSR1ENA": "Canadian National", "TRACKCLASS": "Main" }, "geometry": { "type": "Point", "coordinates": [ -118.9920929, 55.1444638 ] } },
{ "type": "Feature", "properties": { "NID": "23eb9e536227495c9189e01334473bfc", "STNENNAME": "Bruce", "STNTYPE": "Unknown", "STNUSR1ENA": "Canadian National", "TRACKCLASS": "Main" }, "geometry": { "type": "Point", "coordinates": [ -112.11222, 53.19339 ] } },
{ "type": "Feature", "properties": { "NID": "4a90a536c18143a3b08ed1dfc1c74d58", "STNENNAME": "Lousana", "STNTYPE": "Unknown", "STNUSR1ENA": "Canadian National", "TRACKCLASS": "Main" }, "geometry": { "type": "Point", "coordinates": [ -113.1933863, 52.1129382 ] } },
{ "type": "Feature", "properties": { "NID": "18751341dd4a49bf94027d26c167a6a1", "STNENNAME": "Beiseker", "STNTYPE": "Freight", "STNUSR1ENA": "Canadian National", "TRACKCLASS": "Main" }, "geometry": { "type": "Point", "coordinates": [ -113.5311993, 51.382821 ] } },
{ "type": "Feature", "properties": { "NID": "63ec38a07f734a699b215f841e79a037", "STNENNAME": "Janet", "STNTYPE": "Unknown", "STNUSR1ENA": "Canadian National", "TRACKCLASS": "Main" }, "geometry": { "type": "Point", "coordinates": [ -113.879106, 51.0085861 ] } },
{ "type": "Feature", "properties": { "NID": "c0aa94b9b590421f892a19f749a23be7", "STNENNAME": "Drumheller", "STNTYPE": "Unknown", "STNUSR1ENA": "Canadian National", "TRACKCLASS": "Main" }, "geometry": { "type": "Point", "coordinates": [ -112.7060284, 51.4610995 ] } },
{ "type": "Feature", "properties": { "NID": "fe9e8923df0c4b0c8b820467fe1c6f3f", "STNENNAME": "Paddle Prairie", "STNTYPE": "Unknown", "STNUSR1ENA": "Canadian National", "TRACKCLASS": "Main" }, "geometry": { "type": "Point", "coordinates": [ -117.6229396, 57.9155922 ] } },
{ "type": "Feature", "properties": { "NID": "e5c9aa8ce135440ba3748041865f8566", "STNENNAME": "Peace River", "STNTYPE": "Unknown", "STNUSR1ENA": "Canadian National", "TRACKCLASS": "Main" }, "geometry": { "type": "Point", "coordinates": [ -117.2918031, 56.2392454 ] } },
{ "type": "Feature", "properties": { "NID": "7b4e75290d6240ba9e399e44738c573a", "STNENNAME": "Moore", "STNTYPE": "Unknown", "STNUSR1ENA": "Canadian National", "TRACKCLASS": "Main" }, "geometry": { "type": "Point", "coordinates": [ -110.7810601, 53.3542931 ] } },
{ "type": "Feature", "properties": { "NID": "d98ebf974db74c6b8d83983bb473f218", "STNENNAME": "Entwistle", "STNTYPE": "Unknown", "STNUSR1ENA": "Canadian National", "TRACKCLASS": "Main" }, "geometry": { "type": "Point", "coordinates": [ -114.9755992, 53.5947879 ] } },
{ "type": "Feature", "properties": { "NID": "fd6512136de742a799f4ed3ea959861c", "STNENNAME": "Mitsue", "STNTYPE": "Unknown", "STNUSR1ENA": "Canadian National", "TRACKCLASS": "Main" }, "geometry": { "type": "Point", "coordinates": [ -114.6119901, 55.2653506 ] } },
{ "type": "Feature", "properties": { "NID": "8f66ea2b2c174f22909956797c5831a7", "STNENNAME": "MacMath", "STNTYPE": "Unknown", "STNUSR1ENA": "Canadian National", "TRACKCLASS": "Main" }, "geometry": { "type": "Point", "coordinates": [ -114.0139432, 55.0827624 ] } },
{ "type": "Feature", "properties": { "NID": "0158994882664936894a9e1be030a162", "STNENNAME": "Chipman", "STNTYPE": "Unknown", "STNUSR1ENA": "Canadian National", "TRACKCLASS": "Main" }, "geometry": { "type": "Point", "coordinates": [ -112.6342087, 53.699295 ] } },
{ "type": "Feature", "properties": { "NID": "de8f103977964f5ca0e8669090cfc45e", "STNENNAME": "Trochu", "STNTYPE": "Freight", "STNUSR1ENA": "Canadian National", "TRACKCLASS": "Main" }, "geometry": { "type": "Point", "coordinates": [ -113.2247859, 51.8278278 ] } },
{ "type": "Feature", "properties": { "NID": "bb540502a18c44a28bfc8244aaa16e2f", "STNENNAME": "Ryley", "STNTYPE": "Unknown", "STNUSR1ENA": "Canadian National", "TRACKCLASS": "Main" }, "geometry": { "type": "Point", "coordinates": [ -112.4293153, 53.2878376 ] } },
{ "type": "Feature", "properties": { "NID": "78005ace71514d02a4082a8b8a298f17", "STNENNAME": "Kirkcowan", "STNTYPE": "Unknown", "STNUSR1ENA": "Canadian National", "TRACKCLASS": "Main" }, "geometry": { "type": "Point", "coordinates": [ -116.8845464, 55.6825644 ] } },
{ "type": "Feature", "properties": { "NID": "5d18913ec0034b888a11909f634aa8e6", "STNENNAME": "Bremner", "STNTYPE": "Unknown", "STNUSR1ENA": "Canadian National", "TRACKCLASS": "Main" }, "geometry": { "type": "Point", "coordinates": [ -113.2469635, 53.565609 ] } },
{ "type": "Feature", "properties": { "NID": "b017b85714bd4395a44eaabb595cd073", "STNENNAME": "Oyen", "STNTYPE": "Freight", "STNUSR1ENA": "Canadian National", "TRACKCLASS": "Main" }, "geometry": { "type": "Point", "coordinates": [ -110.4825328, 51.3560756 ] } },
{ "type": "Feature", "properties": { "NID": "3a5cff6226f04a3cb2b6e29edee073db", "STNENNAME": "Wingo", "STNTYPE": "Unknown", "STNUSR1ENA": "Canadian National", "TRACKCLASS": "Main" }, "geometry": { "type": "Point", "coordinates": [ -117.2830326, 53.0602002 ] } },
{ "type": "Feature", "properties": { "NID": "005046b18ab24270ac462d181a85e7b5", "STNENNAME": "Lyalta", "STNTYPE": "Unknown", "STNUSR1ENA": "Canadian National", "TRACKCLASS": "Main" }, "geometry": { "type": "Point", "coordinates": [ -113.5994498, 51.1145598 ] } },
{ "type": "Feature", "properties": { "NID": "72eb896d0d234b37b282130b3f978d9c", "STNENNAME": "Cadomin", "STNTYPE": "Unknown", "STNUSR1ENA": "Canadian National", "TRACKCLASS": "Main" }, "geometry": { "type": "Point", "coordinates": [ -117.3266807, 53.0218012 ] } },
{ "type": "Feature", "properties": { "NID": "286bc5d6ad0449428fe12ca3a5052010", "STNENNAME": "Halasa", "STNTYPE": "Unknown", "STNUSR1ENA": "Canadian National", "TRACKCLASS": "Main" }, "geometry": { "type": "Point", "coordinates": [ -112.8530806, 54.5596753 ] } },
{ "type": "Feature", "properties": { "NID": "582b7ea5dd34471f8fd1dff16be6b7b6", "STNENNAME": "Judah", "STNTYPE": "Unknown", "STNUSR1ENA": "Canadian National", "TRACKCLASS": "Main" }, "geometry": { "type": "Point", "coordinates": [ -117.3251305, 56.1499241 ] } },
{ "type": "Feature", "properties": { "NID": "c348acb3021e44daa9e594420a16abd9", "STNENNAME": "Lochearn", "STNTYPE": "Freight", "STNUSR1ENA": "Canadian National", "TRACKCLASS": "Main" }, "geometry": { "type": "Point", "coordinates": [ -114.9761384, 52.3665711 ] } },
{ "type": "Feature", "properties": { "NID": "1770c60c3790440285ceab0a73b9a04d", "STNENNAME": "Russett", "STNTYPE": "Unknown", "STNUSR1ENA": "Canadian National", "TRACKCLASS": "Main" }, "geometry": { "type": "Point", "coordinates": [ -112.392873, 53.2770806 ] } },
{ "type": "Feature", "properties": { "NID": "b739fc0078c0419bb345d55df39d30ae", "STNENNAME": "Lindbrook", "STNTYPE": "Unknown", "STNUSR1ENA": "Canadian National", "TRACKCLASS": "Main" }, "geometry": { "type": "Point", "coordinates": [ -112.8038647, 53.3981494 ] } },
{ "type": "Feature", "properties": { "NID": "d9780df8bf8c422c80c2fd61cdd4ecbb", "STNENNAME": "Steen River", "STNTYPE": "Unknown", "STNUSR1ENA": "Canadian National", "TRACKCLASS": "Main" }, "geometry": { "type": "Point", "coordinates": [ -117.1803314, 59.6036917 ] } },
{ "type": "Feature", "properties": { "NID": "324af340c3a346f78bc743279f77b627", "STNENNAME": "Grey", "STNTYPE": "Unknown", "STNUSR1ENA": "Canadian National", "TRACKCLASS": "Main" }, "geometry": { "type": "Point", "coordinates": [ -118.6702519, 53.8663686 ] } },
{ "type": "Feature", "properties": { "NID": "a758d7d53cc140e684717919f20c9a33", "STNENNAME": "Eckville", "STNTYPE": "Freight", "STNUSR1ENA": "Canadian National", "TRACKCLASS": "Main" }, "geometry": { "type": "Point", "coordinates": [ -114.3680468, 52.3586468 ] } },
{ "type": "Feature", "properties": { "NID": "70c80c3b3123479da56c1f18f72019fa", "STNENNAME": "Stonecreek", "STNTYPE": "Unknown", "STNUSR1ENA": "Canadian National", "TRACKCLASS": "Main" }, "geometry": { "type": "Point", "coordinates": [ -111.0617072, 56.600519 ] } },
{ "type": "Feature", "properties": { "NID": "5e76cf81befc417cb5f3061e2728e562", "STNENNAME": "Coalspur", "STNTYPE": "Unknown", "STNUSR1ENA": "Canadian National", "TRACKCLASS": "Main" }, "geometry": { "type": "Point", "coordinates": [ -117.0143146, 53.183364 ] } },
{ "type": "Feature", "properties": { "NID": "bbcb2ae0beb341fcaf7f56787396485a", "STNENNAME": "Dunn", "STNTYPE": "Unknown", "STNUSR1ENA": "Canadian National", "TRACKCLASS": "Main" }, "geometry": { "type": "Point", "coordinates": [ -110.3715728, 52.7249073 ] } },
{ "type": "Feature", "properties": { "NID": "109700a8c557488c84bbab70f45bc044", "STNENNAME": "Viking", "STNTYPE": "Mixed", "STNUSR1ENA": "Canadian National", "TRACKCLASS": "Main" }, "geometry": { "type": "Point", "coordinates": [ -111.7781326, 53.0925865 ] } },
{ "type": "Feature", "properties": { "NID": "28f77350cd65414799f35826f4c25940", "STNENNAME": "Equity", "STNTYPE": "Unknown", "STNUSR1ENA": "Canadian National", "TRACKCLASS": "Main" }, "geometry": { "type": "Point", "coordinates": [ -113.2406342, 51.7831239 ] } },
{ "type": "Feature", "properties": { "NID": "16d2633a540a4fb4a9c5bd4cecce7076", "STNENNAME": "Whitecourt", "STNTYPE": "Freight", "STNUSR1ENA": "Canadian National", "TRACKCLASS": "Main" }, "geometry": { "type": "Point", "coordinates": [ -115.6840281, 54.1399203 ] } },
{ "type": "Feature", "properties": { "NID": "3cdd7cc6be3d41718769220d9d8c776d", "STNENNAME": "Sipos", "STNTYPE": "Freight", "STNUSR1ENA": "Canadian National", "TRACKCLASS": "Main" }, "geometry": { "type": "Point", "coordinates": [ -111.9439833, 51.6373715 ] } },
{ "type": "Feature", "properties": { "NID": "36a5ed62f53d42d9882812e3537d8c06", "STNENNAME": "Kinsella", "STNTYPE": "Unknown", "STNUSR1ENA": "Canadian National", "TRACKCLASS": "Main" }, "geometry": { "type": "Point", "coordinates": [ -111.5070174, 52.9932182 ] } },
{ "type": "Feature", "properties": { "NID": "7e6824855f914a27bd69be34b8473c62", "STNENNAME": "McQuarrie", "STNTYPE": "Unknown", "STNUSR1ENA": "Canadian National", "TRACKCLASS": "Main" }, "geometry": { "type": "Point", "coordinates": [ -112.8229903, 53.0068262 ] } },
{ "type": "Feature", "properties": { "NID": "9b3e2bb707d34d0aa2a8882ddfa18daf", "STNENNAME": "Lombell", "STNTYPE": "Unknown", "STNUSR1ENA": "Canadian National", "TRACKCLASS": "Main" }, "geometry": { "type": "Point", "coordinates": [ -115.2041995, 53.9858926 ] } },
{ "type": "Feature", "properties": { "NID": "e732247b64f7485c98e56f3361b98721", "STNENNAME": "Torlea", "STNTYPE": "Freight", "STNUSR1ENA": "Canadian National", "TRACKCLASS": "Main" }, "geometry": { "type": "Point", "coordinates": [ -111.8161586, 53.1041171 ] } },
{ "type": "Feature", "properties": { "NID": "8dfee1969f42452fabf50f1a1ad1e887", "STNENNAME": "Irma", "STNTYPE": "Unknown", "STNUSR1ENA": "Canadian National", "TRACKCLASS": "Main" }, "geometry": { "type": "Point", "coordinates": [ -111.2310242, 52.9109006 ] } },
{ "type": "Feature", "properties": { "NID": "29f677fc7c2c451fa979c527a6f0ff9c", "STNENNAME": "Kilsyth", "STNTYPE": "Unknown", "STNUSR1ENA": "Canadian National", "TRACKCLASS": "Main" }, "geometry": { "type": "Point", "coordinates": [ -114.1605829, 54.6021073 ] } },
{ "type": "Feature", "properties": { "NID": "4bda9abce7954f90bec953df32c84adc", "STNENNAME": "Redwater", "STNTYPE": "Unknown", "STNUSR1ENA": "Canadian National", "TRACKCLASS": "Main" }, "geometry": { "type": "Point", "coordinates": [ -113.1058696, 53.9507152 ] } },
{ "type": "Feature", "properties": { "NID": "29d9432c29ea4ba4821cb4648c896163", "STNENNAME": "Benbow", "STNTYPE": "Unknown", "STNUSR1ENA": "Canadian National", "TRACKCLASS": "Main" }, "geometry": { "type": "Point", "coordinates": [ -116.5805484, 54.1514966 ] } },
{ "type": "Feature", "properties": { "NID": "57458c03ef4b40698f808d15ba7b4deb", "STNENNAME": "Windell", "STNTYPE": "Unknown", "STNUSR1ENA": "Canadian National", "TRACKCLASS": "Main" }, "geometry": { "type": "Point", "coordinates": [ -111.106489, 55.6779913 ] } },
{ "type": "Feature", "properties": { "NID": "e284c1819efb41c5aef68257e5a8f314", "STNENNAME": "Spruce Grove", "STNTYPE": "Unknown", "STNUSR1ENA": "Canadian National", "TRACKCLASS": "Main" }, "geometry": { "type": "Point", "coordinates": [ -113.9060721, 53.5404426 ] } },
{ "type": "Feature", "properties": { "NID": "bd0f06aae474404f861c95511b9cf254", "STNENNAME": "Slave Lake", "STNTYPE": "Unknown", "STNUSR1ENA": "Canadian National", "TRACKCLASS": "Main" }, "geometry": { "type": "Point", "coordinates": [ -114.7820953, 55.2833153 ] } },
{ "type": "Feature", "properties": { "NID": "0c4a485ebe324c1e80d01be18b031226", "STNENNAME": "Huxley", "STNTYPE": "Unknown", "STNUSR1ENA": "Canadian National", "TRACKCLASS": "Main" }, "geometry": { "type": "Point", "coordinates": [ -113.2331943, 51.9233316 ] } },
{ "type": "Feature", "properties": { "NID": "dc4f75349b6a47d5a09a0c741e235afe", "STNENNAME": "Behan", "STNTYPE": "Unknown", "STNUSR1ENA": "Canadian National", "TRACKCLASS": "Main" }, "geometry": { "type": "Point", "coordinates": [ -111.4307654, 55.2746712 ] } },
{ "type": "Feature", "properties": { "NID": "5e8a760e04d74a7eb3f9272e0ca24724", "STNENNAME": "Procyk", "STNTYPE": "Freight", "STNUSR1ENA": "Canadian National", "TRACKCLASS": "Connecting" }, "geometry": { "type": "Point", "coordinates": [ -113.5113043, 53.5820431 ] } },
{ "type": "Feature", "properties": { "NID": "f869de1a040f4f1193c62f711dda4afc", "STNENNAME": "Abee", "STNTYPE": "Unknown", "STNUSR1ENA": "Canadian National", "TRACKCLASS": "Main" }, "geometry": { "type": "Point", "coordinates": [ -113.0214641, 54.2403396 ] } },
{ "type": "Feature", "properties": { "NID": "d7a9588f193341f590a34446c78a3bc5", "STNENNAME": "Venice", "STNTYPE": "Unknown", "STNUSR1ENA": "Canadian National", "TRACKCLASS": "Main" }, "geometry": { "type": "Point", "coordinates": [ -112.0220931, 54.7484505 ] } },
{ "type": "Feature", "properties": { "NID": "4fc5e5ed15734ce38331d6b56ab8a36b", "STNENNAME": "Boyle", "STNTYPE": "Freight", "STNUSR1ENA": "Canadian National", "TRACKCLASS": "Main" }, "geometry": { "type": "Point", "coordinates": [ -112.8090834, 54.5904921 ] } },
{ "type": "Feature", "properties": { "NID": "b2ef43cd17934c8cb8b016caf23bff50", "STNENNAME": "Cheecham", "STNTYPE": "Unknown", "STNUSR1ENA": "Canadian National", "TRACKCLASS": "Main" }, "geometry": { "type": "Point", "coordinates": [ -110.8723432, 56.2812339 ] } },
{ "type": "Feature", "properties": { "NID": "894e077797ab49a685346b1fb8a07b48", "STNENNAME": "Lamerton", "STNTYPE": "Unknown", "STNUSR1ENA": "Canadian National", "TRACKCLASS": "Main" }, "geometry": { "type": "Point", "coordinates": [ -113.09865, 52.4916261 ] } },
{ "type": "Feature", "properties": { "NID": "310d45e11a654ea7b2c44b63221f84b1", "STNENNAME": "Duhamel", "STNTYPE": "Unknown", "STNUSR1ENA": "Canadian National", "TRACKCLASS": "Main" }, "geometry": { "type": "Point", "coordinates": [ -112.9615004, 52.9153421 ] } },
{ "type": "Feature", "properties": { "NID": "b42c289cd423427082a30680d315a333", "STNENNAME": "Grande Prairie North", "STNTYPE": "Unknown", "STNUSR1ENA": "Canadian National", "TRACKCLASS": "Main" }, "geometry": { "type": "Point", "coordinates": [ -118.7888667, 55.2460514 ] } },
{ "type": "Feature", "properties": { "NID": "eb043d84b4b74d3a84e8cf9474a7bebe", "STNENNAME": "Bashaw", "STNTYPE": "Freight", "STNUSR1ENA": "Canadian National", "TRACKCLASS": "Main" }, "geometry": { "type": "Point", "coordinates": [ -112.9698623, 52.5824666 ] } },
{ "type": "Feature", "properties": { "NID": "977e2d55720c4d148720165011597a01", "STNENNAME": "Sexsmith", "STNTYPE": "Freight", "STNUSR1ENA": "Canadian National", "TRACKCLASS": "Main" }, "geometry": { "type": "Point", "coordinates": [ -118.7858045, 55.3494748 ] } },
{ "type": "Feature", "properties": { "NID": "807e02375862440c864dc9965ed6180b", "STNENNAME": "Conklin", "STNTYPE": "Unknown", "STNUSR1ENA": "Canadian National", "TRACKCLASS": "Main" }, "geometry": { "type": "Point", "coordinates": [ -111.1016035, 55.6486025 ] } },
{ "type": "Feature", "properties": { "NID": "9aa4a803ff3a480f801e6d7421ebfaf3", "STNENNAME": "Chard", "STNTYPE": "Unknown", "STNUSR1ENA": "Canadian National", "TRACKCLASS": "Main" }, "geometry": { "type": "Point", "coordinates": [ -110.9060143, 55.8421696 ] } },
{ "type": "Feature", "properties": { "NID": "756943127511412d9bdceec1007d6b27", "STNENNAME": "Abercynon", "STNTYPE": "Unknown", "STNUSR1ENA": "Canadian National", "TRACKCLASS": "Main" }, "geometry": { "type": "Point", "coordinates": [ -112.8228932, 54.7038724 ] } },
{ "type": "Feature", "properties": { "NID": "41a0862ab4d044d79d882b1d4f1062c7", "STNENNAME": "Lloydminster", "STNTYPE": "Freight", "STNUSR1ENA": "Canadian National", "TRACKCLASS": "Main" }, "geometry": { "type": "Point", "coordinates": [ -110.0056332, 53.2848055 ] } },
{ "type": "Feature", "properties": { "NID": "7b65b16ef7f04cdabd79d3281dc53f23", "STNENNAME": "Beaverlodge", "STNTYPE": "Unknown", "STNUSR1ENA": "Canadian National", "TRACKCLASS": "Main" }, "geometry": { "type": "Point", "coordinates": [ -119.4292734, 55.2079185 ] } },
{ "type": "Feature", "properties": { "NID": "d51ec0af005d4879a54df58fb361c286", "STNENNAME": "Bison", "STNTYPE": "Unknown", "STNUSR1ENA": "Canadian National", "TRACKCLASS": "Main" }, "geometry": { "type": "Point", "coordinates": [ -112.5981481, 54.6279442 ] } },
{ "type": "Feature", "properties": { "NID": "2114fe2baca8467fb4a1e36580c34f1b", "STNENNAME": "Bretville Junction", "STNTYPE": "Unknown", "STNUSR1ENA": "Canadian National", "TRACKCLASS": "Main" }, "geometry": { "type": "Point", "coordinates": [ -113.3669508, 53.5719703 ] } },
{ "type": "Feature", "properties": { "NID": "7c6d3512a9bd4b0aad2f652abcd9cec0", "STNENNAME": "Duet", "STNTYPE": "Unknown", "STNUSR1ENA": "Canadian National", "TRACKCLASS": "Main" }, "geometry": { "type": "Point", "coordinates": [ -117.3083974, 56.2385674 ] } },
{ "type": "Feature", "properties": { "NID": "ef0e2e4e1bc94d7984e399bb8ec659cd", "STNENNAME": "Parkhill Junction", "STNTYPE": "Unknown", "STNUSR1ENA": "Canadian National", "TRACKCLASS": "Main" }, "geometry": { "type": "Point", "coordinates": [ -116.9958281, 53.1898453 ] } },
{ "type": "Feature", "properties": { "NID": "2eec5144eb7b4a14b918cd12fb6004a1", "STNENNAME": "West Junction", "STNTYPE": "Freight", "STNUSR1ENA": "Canadian National", "TRACKCLASS": "Main" }, "geometry": { "type": "Point", "coordinates": [ -113.5376295, 53.5835446 ] } },
{ "type": "Feature", "properties": { "NID": "faea9d6d0f5f406ba76debb2df4c513d", "STNENNAME": "Hanna", "STNTYPE": "Unknown", "STNUSR1ENA": "Canadian National", "TRACKCLASS": "Main" }, "geometry": { "type": "Point", "coordinates": [ -111.9261049, 51.6408635 ] } },
{ "type": "Feature", "properties": { "NID": "4dda63448eae436481bd9a9b4327d402", "STNENNAME": "Niton", "STNTYPE": "Unknown", "STNUSR1ENA": "Canadian National", "TRACKCLASS": "Main" }, "geometry": { "type": "Point", "coordinates": [ -115.7588155, 53.6569981 ] } },
{ "type": "Feature", "properties": { "NID": "1d3edba6bcc0448ba901f0c7aba31bcc", "STNENNAME": "Kenzie", "STNTYPE": "Unknown", "STNUSR1ENA": "Canadian National", "TRACKCLASS": "Main" }, "geometry": { "type": "Point", "coordinates": [ -116.7626985, 55.5274046 ] } },
{ "type": "Feature", "properties": { "NID": "528f22b326ec45429d723768c17a1bf6", "STNENNAME": "Enilda", "STNTYPE": "Freight", "STNUSR1ENA": "Canadian National", "TRACKCLASS": "Main" }, "geometry": { "type": "Point", "coordinates": [ -116.322197, 55.4166539 ] } },
{ "type": "Feature", "properties": { "NID": "e373a8b1276a4252a9305e8c98236305", "STNENNAME": "East Junction", "STNTYPE": "Freight", "STNUSR1ENA": "Canadian National", "TRACKCLASS": "Main" }, "geometry": { "type": "Point", "coordinates": [ -113.4384422, 53.5834446 ] } },
{ "type": "Feature", "properties": { "NID": "f089f58c8dc64dda9e11ed34e03c7656", "STNENNAME": "Reno", "STNTYPE": "Unknown", "STNUSR1ENA": "Canadian National", "TRACKCLASS": "Main" }, "geometry": { "type": "Point", "coordinates": [ -116.996415, 55.991113 ] } },
{ "type": "Feature", "properties": { "NID": "df38924e28a44c97a90c8004d4283b6f", "STNENNAME": "Alpen", "STNTYPE": "Unknown", "STNUSR1ENA": "Canadian National", "TRACKCLASS": "Main" }, "geometry": { "type": "Point", "coordinates": [ -112.9250993, 54.4234147 ] } },
{ "type": "Feature", "properties": { "NID": "ef391e9700034a618335ec6f28bae50d", "STNENNAME": "Quigley", "STNTYPE": "Unknown", "STNUSR1ENA": "Canadian National", "TRACKCLASS": "Main" }, "geometry": { "type": "Point", "coordinates": [ -110.8800665, 56.1152673 ] } },
{ "type": "Feature", "properties": { "NID": "fd9603f2a32c4e1e9e46f37e3bcac306", "STNENNAME": "Caslan", "STNTYPE": "Unknown", "STNUSR1ENA": "Canadian National", "TRACKCLASS": "Main" }, "geometry": { "type": "Point", "coordinates": [ -112.5060891, 54.6320986 ] } },
{ "type": "Feature", "properties": { "NID": "1b262cc0054b4eff8d64b33bcf20b6c8", "STNENNAME": "Winniandy", "STNTYPE": "Freight", "STNUSR1ENA": "Canadian National", "TRACKCLASS": "Main" }, "geometry": { "type": "Point", "coordinates": [ -119.1089846, 54.0039474 ] } },
{ "type": "Feature", "properties": { "NID": "3f8e1cccaeeb4e93b14a9a8c77edcc63", "STNENNAME": "Botten", "STNTYPE": "Unknown", "STNUSR1ENA": "Canadian National", "TRACKCLASS": "Main" }, "geometry": { "type": "Point", "coordinates": [ -118.6140137, 54.1943016 ] } },
{ "type": "Feature", "properties": { "NID": "84c009474e8b4e68a26c9d6377d9e214", "STNENNAME": "Whelan", "STNTYPE": "Unknown", "STNUSR1ENA": "Canadian National", "TRACKCLASS": "Main" }, "geometry": { "type": "Point", "coordinates": [ -111.9344186, 54.777202 ] } },
{ "type": "Feature", "properties": { "NID": "97afcfed81ca430689daeb7c0e5b3cf4", "STNENNAME": "Alliance", "STNTYPE": "Unknown", "STNUSR1ENA": "Canadian National", "TRACKCLASS": "Main" }, "geometry": { "type": "Point", "coordinates": [ -111.8035513, 52.4433148 ] } },
{ "type": "Feature", "properties": { "NID": "a895662f81e24a72b3881308d27e61b1", "STNENNAME": "Jasper", "STNTYPE": "Passenger Station", "STNUSR1ENA": "VIA Rail", "TRACKCLASS": "Main" }, "geometry": { "type": "Point", "coordinates": [ -118.0791066, 52.8763588 ] } },
{ "type": "Feature", "properties": { "NID": "729c17ffeabf49669119213c3331503f", "STNENNAME": "Dorscheid", "STNTYPE": "Unknown", "STNUSR1ENA": "Canadian National", "TRACKCLASS": "Main" }, "geometry": { "type": "Point", "coordinates": [ -118.5855176, 54.7748293 ] } },
{ "type": "Feature", "properties": { "NID": "33d82a07f2d34b39b50996aa41c99452", "STNENNAME": "Amundson", "STNTYPE": "Unknown", "STNUSR1ENA": "Canadian National", "TRACKCLASS": "Main" }, "geometry": { "type": "Point", "coordinates": [ -118.3966358, 54.4155472 ] } },
{ "type": "Feature", "properties": { "NID": "ec6122481dec4494b51df4e681bbc50e", "STNENNAME": "Latornell", "STNTYPE": "Unknown", "STNUSR1ENA": "Canadian National", "TRACKCLASS": "Main" }, "geometry": { "type": "Point", "coordinates": [ -118.3216669, 54.6077644 ] } },
{ "type": "Feature", "properties": { "NID": "2c188fed72bb499c818a8a49f8c0888a", "STNENNAME": "Duvegan Junction", "STNTYPE": "Freight", "STNUSR1ENA": "Canadian National", "TRACKCLASS": "Main" }, "geometry": { "type": "Point", "coordinates": [ -113.5552163, 53.5836074 ] } },
{ "type": "Feature", "properties": { "NID": "86ea8170a08b4496ac40ad204e6af0bd", "STNENNAME": "Hanlon", "STNTYPE": "Unknown", "STNUSR1ENA": "Canadian National", "TRACKCLASS": "Main" }, "geometry": { "type": "Point", "coordinates": [ -118.2338028, 53.6539154 ] } },
{ "type": "Feature", "properties": { "NID": "8a9f712adce8424c80bbba09e4b46df7", "STNENNAME": "Wild Hay", "STNTYPE": "Unknown", "STNUSR1ENA": "Canadian National", "TRACKCLASS": "Main" }, "geometry": { "type": "Point", "coordinates": [ -117.8382263, 53.5582657 ] } },
{ "type": "Feature", "properties": { "NID": "7f0c00c15e8b4df298726265cc399f40", "STNENNAME": "Kenneth", "STNTYPE": "Unknown", "STNUSR1ENA": "Canadian National", "TRACKCLASS": "Main" }, "geometry": { "type": "Point", "coordinates": [ -119.1444168, 53.978653 ] } },
{ "type": "Feature", "properties": { "NID": "82889736a03c489fa801150e3a331ff0", "STNENNAME": "Henry House", "STNTYPE": "Unknown", "STNUSR1ENA": "Canadian National", "TRACKCLASS": "Main" }, "geometry": { "type": "Point", "coordinates": [ -118.0760252, 53.0107677 ] } },
{ "type": "Feature", "properties": { "NID": "0d32fafa079444c787404d1b1320b3f6", "STNENNAME": "Pingle", "STNTYPE": "Unknown", "STNUSR1ENA": "Canadian National", "TRACKCLASS": "Main" }, "geometry": { "type": "Point", "coordinates": [ -110.911538, 55.9111365 ] } },
{ "type": "Feature", "properties": { "NID": "965d4d30354e497a85249e20df38270c", "STNENNAME": "Mirror", "STNTYPE": "Freight", "STNUSR1ENA": "Canadian National", "TRACKCLASS": "Main" }, "geometry": { "type": "Point", "coordinates": [ -113.120842, 52.465561 ] } },
{ "type": "Feature", "properties": { "NID": "b01b5f9935744097981080b16f229393", "STNENNAME": "Edmonton Intermodal Terminal", "STNTYPE": "Intermodal", "STNUSR1ENA": "Canadian National", "TRACKCLASS": "Spur" }, "geometry": { "type": "Point", "coordinates": [ -113.637673, 53.5811111 ] } },
{ "type": "Feature", "properties": { "NID": "7a0c25295bcc4b9698984beda59e602a", "STNENNAME": "Rycroft Junction", "STNTYPE": "Unknown", "STNUSR1ENA": "Canadian National", "TRACKCLASS": "Main" }, "geometry": { "type": "Point", "coordinates": [ -118.7130801, 55.7582704 ] } },
{ "type": "Feature", "properties": { "NID": "b533c9b5146e4c8084b0f2e05b63d546", "STNENNAME": "Tremblay", "STNTYPE": "Freight", "STNUSR1ENA": "Canadian National", "TRACKCLASS": "Main" }, "geometry": { "type": "Point", "coordinates": [ -120.8503405, 55.7890543 ] } },
{ "type": "Feature", "properties": { "NID": "e59cd01f377947e3ac8f48898c8389bf", "STNENNAME": "Chu Chua", "STNTYPE": "Freight", "STNUSR1ENA": "Canadian National", "TRACKCLASS": "Main" }, "geometry": { "type": "Point", "coordinates": [ -120.1630925, 51.3524277 ] } },
{ "type": "Feature", "properties": { "NID": "f9f39a8709d44d9ca088981af2bf8f91", "STNENNAME": "Dawson Creek", "STNTYPE": "Freight", "STNUSR1ENA": "Canadian National", "TRACKCLASS": "Main" }, "geometry": { "type": "Point", "coordinates": [ -120.2658483, 55.7759534 ] } },
{ "type": "Feature", "properties": { "NID": "2bcc172c550b4b0eaf151fcac57b15c9", "STNENNAME": "Urquhart", "STNTYPE": "Freight", "STNUSR1ENA": "Canadian National", "TRACKCLASS": "Main" }, "geometry": { "type": "Point", "coordinates": [ -120.4257941, 55.7857948 ] } },
{ "type": "Feature", "properties": { "NID": "d46014c49975431b8e62683971f56dd6", "STNENNAME": "Prince George North", "STNTYPE": "Freight", "STNUSR1ENA": "Canadian National", "TRACKCLASS": "Main" }, "geometry": { "type": "Point", "coordinates": [ -122.726141, 53.9146261 ] } },
{ "type": "Feature", "properties": { "NID": "b96ace1da07a40718dc22f3c625f10d3", "STNENNAME": "Minaret", "STNTYPE": "Freight", "STNUSR1ENA": "Canadian National", "TRACKCLASS": "Main" }, "geometry": { "type": "Point", "coordinates": [ -127.2705263, 56.3364903 ] } },
{ "type": "Feature", "properties": { "NID": "0e77d9bfc6724451b28b1a262ddd308d", "STNENNAME": "Frederick", "STNTYPE": "Freight", "STNUSR1ENA": "Canadian National", "TRACKCLASS": "Main" }, "geometry": { "type": "Point", "coordinates": [ -120.6420388, 50.7475529 ] } },
{ "type": "Feature", "properties": { "NID": "8c3d5f8a7f414e92b696b8a6bc0b4b5d", "STNENNAME": "Driftwood", "STNTYPE": "Freight", "STNUSR1ENA": "Canadian National", "TRACKCLASS": "Main" }, "geometry": { "type": "Point", "coordinates": [ -126.4125785, 55.8152736 ] } },
{ "type": "Feature", "properties": { "NID": "381a81ee66864d6785c60805344f64ab", "STNENNAME": "Glen Fraser", "STNTYPE": "Freight", "STNUSR1ENA": "Canadian National", "TRACKCLASS": "Main" }, "geometry": { "type": "Point", "coordinates": [ -121.8501459, 50.8064107 ] } },
{ "type": "Feature", "properties": { "NID": "5961755641ee4442b32b8642442d818b", "STNENNAME": "Kitimat", "STNTYPE": "Freight", "STNUSR1ENA": "Canadian National", "TRACKCLASS": "Main" }, "geometry": { "type": "Point", "coordinates": [ -128.686406799999986, 54.0676232 ] } },
{ "type": "Feature", "properties": { "NID": "627dc0f3360d42b18321a292e0ea6593", "STNENNAME": "Pitquah", "STNTYPE": "Freight", "STNUSR1ENA": "Canadian National", "TRACKCLASS": "Main" }, "geometry": { "type": "Point", "coordinates": [ -121.447732, 50.2571 ] } },
{ "type": "Feature", "properties": { "NID": "cd173f7049634490b335f29ba4260b6e", "STNENNAME": "Miworth", "STNTYPE": "Freight", "STNUSR1ENA": "Canadian National", "TRACKCLASS": "Main" }, "geometry": { "type": "Point", "coordinates": [ -122.8875734, 53.9734693 ] } },
{ "type": "Feature", "properties": { "NID": "a03349b708a147afb43efa3582ec5957", "STNENNAME": "Wolverine Fraser", "STNTYPE": "Freight", "STNUSR1ENA": "Canadian National", "TRACKCLASS": "Main" }, "geometry": { "type": "Point", "coordinates": [ -122.394339, 54.0687826 ] } },
{ "type": "Feature", "properties": { "NID": "069e7b2b89bf45f09b35170baf07f985", "STNENNAME": "Gibraltar", "STNTYPE": "Freight", "STNUSR1ENA": "Canadian National", "TRACKCLASS": "Main" }, "geometry": { "type": "Point", "coordinates": [ -122.4007377, 52.4436116 ] } },
{ "type": "Feature", "properties": { "NID": "9a4b82c7f78e4b07b4f387fb993ef9b3", "STNENNAME": "Lasha", "STNTYPE": "Freight", "STNUSR1ENA": "Canadian National", "TRACKCLASS": "Main" }, "geometry": { "type": "Point", "coordinates": [ -121.5738226, 50.2477966 ] } },
{ "type": "Feature", "properties": { "NID": "da66d47adb1e4df9940a74b99fdaee95", "STNENNAME": "Takla", "STNTYPE": "Freight", "STNUSR1ENA": "Canadian National", "TRACKCLASS": "Main" }, "geometry": { "type": "Point", "coordinates": [ -125.953885, 55.4761221 ] } },
{ "type": "Feature", "properties": { "NID": "d87bda391c8c427cae48df3371c7fa37", "STNENNAME": "Spicer", "STNTYPE": "Freight", "STNUSR1ENA": "Canadian National", "TRACKCLASS": "Connecting" }, "geometry": { "type": "Point", "coordinates": [ -119.3036815, 52.8829737 ] } },
{ "type": "Feature", "properties": { "NID": "9e236dd487d54849b5d03a39f20687fa", "STNENNAME": "Garbitt", "STNTYPE": "Freight", "STNUSR1ENA": "Canadian National", "TRACKCLASS": "Main" }, "geometry": { "type": "Point", "coordinates": [ -122.7837057, 55.4964012 ] } },
{ "type": "Feature", "properties": { "NID": "3297264e8675482cbf2456d3dc8a2caf", "STNENNAME": "Telkwa", "STNTYPE": "Passenger Station", "STNUSR1ENA": "VIA Rail", "TRACKCLASS": "Main" }, "geometry": { "type": "Point", "coordinates": [ -127.0505745, 54.691393 ] } },
{ "type": "Feature", "properties": { "NID": "c0f2c60e7a0c4a169d80a64fa1a0d228", "STNENNAME": "Dorreen", "STNTYPE": "Passenger Station", "STNUSR1ENA": "VIA Rail", "TRACKCLASS": "Main" }, "geometry": { "type": "Point", "coordinates": [ -128.3438922, 54.8407878 ] } },
{ "type": "Feature", "properties": { "NID": "af078d15f862407bb33f43bd4175e2df", "STNENNAME": "Usk", "STNTYPE": "Passenger Station", "STNUSR1ENA": "VIA Rail", "TRACKCLASS": "Main" }, "geometry": { "type": "Point", "coordinates": [ -128.4160139, 54.6364768 ] } },
{ "type": "Feature", "properties": { "NID": "619dd1d071774aa1b7c767e655ff308e", "STNENNAME": "Willingdon Junction", "STNTYPE": "Freight", "STNUSR1ENA": "Canadian National", "TRACKCLASS": "Connecting" }, "geometry": { "type": "Point", "coordinates": [ -123.0019085, 49.2620494 ] } },
{ "type": "Feature", "properties": { "NID": "90f76e07b3334c4c8f5c38d9b7a72ab8", "STNENNAME": "Cheam View", "STNTYPE": "Freight", "STNUSR1ENA": "Canadian National", "TRACKCLASS": "Main" }, "geometry": { "type": "Point", "coordinates": [ -121.672268, 49.2797781 ] } },
{ "type": "Feature", "properties": { "NID": "0ed5c515725a480a9983a7c0a9a4513f", "STNENNAME": "Brunswick", "STNTYPE": "Freight", "STNUSR1ENA": "Canadian National", "TRACKCLASS": "Main" }, "geometry": { "type": "Point", "coordinates": [ -123.2431083, 49.4742226 ] } },
{ "type": "Feature", "properties": { "NID": "a4288d5c072949babcf12c2633892238", "STNENNAME": "Kiskatinaw", "STNTYPE": "Freight", "STNUSR1ENA": "Canadian National", "TRACKCLASS": "Main" }, "geometry": { "type": "Point", "coordinates": [ -120.5279433, 55.762632 ] } },
{ "type": "Feature", "properties": { "NID": "bb9c7232b04f475cbcad9888893de638", "STNENNAME": "Needley", "STNTYPE": "Freight", "STNUSR1ENA": "Canadian National", "TRACKCLASS": "Main" }, "geometry": { "type": "Point", "coordinates": [ -121.5964817, 58.2682831 ] } },
{ "type": "Feature", "properties": { "NID": "eb648f44a1ed446da623993c919429b2", "STNENNAME": "Kelly Lake", "STNTYPE": "Freight", "STNUSR1ENA": "Canadian National", "TRACKCLASS": "Main" }, "geometry": { "type": "Point", "coordinates": [ -121.7595524, 51.0139072 ] } },
{ "type": "Feature", "properties": { "NID": "2e6830693148482e8d67f9440f769ef8", "STNENNAME": "Potter", "STNTYPE": "Freight", "STNUSR1ENA": "Canadian National", "TRACKCLASS": "Main" }, "geometry": { "type": "Point", "coordinates": [ -121.1986932, 51.5157447 ] } },
{ "type": "Feature", "properties": { "NID": "875603672d2241eeafea6e56153f181b", "STNENNAME": "Bridge", "STNTYPE": "Freight", "STNUSR1ENA": "Canadian National", "TRACKCLASS": "Main" }, "geometry": { "type": "Point", "coordinates": [ -122.6902678, 53.9243416 ] } },
{ "type": "Feature", "properties": { "NID": "4cff8cf1753645b5bb83c25ca5525bf0", "STNENNAME": "Matheson", "STNTYPE": "Freight", "STNUSR1ENA": "Canadian National", "TRACKCLASS": "Main" }, "geometry": { "type": "Point", "coordinates": [ -122.6595126, 53.9475501 ] } },
{ "type": "Feature", "properties": { "NID": "215d812830804a1ba550addc85048783", "STNENNAME": "Fountain", "STNTYPE": "Freight", "STNUSR1ENA": "Canadian National", "TRACKCLASS": "Main" }, "geometry": { "type": "Point", "coordinates": [ -121.892623, 50.7552653 ] } },
{ "type": "Feature", "properties": { "NID": "5653ab98e53e45c1b0de0f3167f7bbd0", "STNENNAME": "Barriere", "STNTYPE": "Freight", "STNUSR1ENA": "Canadian National", "TRACKCLASS": "Siding" }, "geometry": { "type": "Point", "coordinates": [ -120.1305077, 51.1702725 ] } },
{ "type": "Feature", "properties": { "NID": "dc13446b2cfb4e7ab763c7c5455d9f92", "STNENNAME": "Marne", "STNTYPE": "Freight", "STNUSR1ENA": "Canadian National", "TRACKCLASS": "Main" }, "geometry": { "type": "Point", "coordinates": [ -122.4238544, 50.6390603 ] } },
{ "type": "Feature", "properties": { "NID": "f3601fdef29e419c88e145791182f204", "STNENNAME": "Moricetown", "STNTYPE": "Freight", "STNUSR1ENA": "Canadian National", "TRACKCLASS": "Main" }, "geometry": { "type": "Point", "coordinates": [ -127.333699, 55.0463715 ] } },
{ "type": "Feature", "properties": { "NID": "fde403f8625b48809aedfcb6cde6ec9f", "STNENNAME": "McMurphy", "STNTYPE": "Freight", "STNUSR1ENA": "Canadian National", "TRACKCLASS": "Main" }, "geometry": { "type": "Point", "coordinates": [ -119.4408187, 51.6738615 ] } },
{ "type": "Feature", "properties": { "NID": "4bdb34db6e994e22baf620ff579cc684", "STNENNAME": "Creekside", "STNTYPE": "Freight", "STNUSR1ENA": "Canadian National", "TRACKCLASS": "Main" }, "geometry": { "type": "Point", "coordinates": [ -122.7040603, 50.4076425 ] } },
{ "type": "Feature", "properties": { "NID": "b077103c10b84730b1f046858d2d2a9b", "STNENNAME": "Hulcross", "STNTYPE": "Freight", "STNUSR1ENA": "Canadian National", "TRACKCLASS": "Main" }, "geometry": { "type": "Point", "coordinates": [ -122.1249868, 55.6374001 ] } },
{ "type": "Feature", "properties": { "NID": "c5a8e06b37324b1ba4b0f04575534870", "STNENNAME": "Bulkley House", "STNTYPE": "Freight", "STNUSR1ENA": "Canadian National", "TRACKCLASS": "Main" }, "geometry": { "type": "Point", "coordinates": [ -126.2200604, 55.7090821 ] } },
{ "type": "Feature", "properties": { "NID": "85646e02392a4705af017c3c13a2dbcf", "STNENNAME": "Lac La Hache", "STNTYPE": "Freight", "STNUSR1ENA": "Canadian National", "TRACKCLASS": "Main" }, "geometry": { "type": "Point", "coordinates": [ -121.4804291, 51.7932582 ] } },
{ "type": "Feature", "properties": { "NID": "bf8b0ff8e42645bb9e0b702dbee89236", "STNENNAME": "Livingstone", "STNTYPE": "Freight", "STNUSR1ENA": "Canadian National", "TRACKCLASS": "Main" }, "geometry": { "type": "Point", "coordinates": [ -122.5720541, 49.141662 ] } },
{ "type": "Feature", "properties": { "NID": "dca5b2cae5794be4b58ed9e6dbb7b1f6", "STNENNAME": "Foreman", "STNTYPE": "Freight", "STNUSR1ENA": "Canadian National", "TRACKCLASS": "Main" }, "geometry": { "type": "Point", "coordinates": [ -122.6612017, 53.9452555 ] } },
{ "type": "Feature", "properties": { "NID": "e028463831664130a47b0d80f128783a", "STNENNAME": "Chapmans", "STNTYPE": "Freight", "STNUSR1ENA": "Canadian National", "TRACKCLASS": "Main" }, "geometry": { "type": "Point", "coordinates": [ -121.4201622, 49.7167311 ] } },
{ "type": "Feature", "properties": { "NID": "bc81ea9d810f4c329492c2fe4d764523", "STNENNAME": "Rock Pit Track", "STNTYPE": "Freight", "STNUSR1ENA": "Canadian National", "TRACKCLASS": "Main" }, "geometry": { "type": "Point", "coordinates": [ -121.4045698, 49.5919432 ] } },
{ "type": "Feature", "properties": { "NID": "3477ffafaa01416aa706464f5e50e9a5", "STNENNAME": "Squeah", "STNTYPE": "Freight", "STNUSR1ENA": "Canadian National", "TRACKCLASS": "Main" }, "geometry": { "type": "Point", "coordinates": [ -121.4150669, 49.49441 ] } },
{ "type": "Feature", "properties": { "NID": "5f4be6c0c25743948d46a24448d21511", "STNENNAME": "Laidlaw", "STNTYPE": "Freight", "STNUSR1ENA": "Canadian National", "TRACKCLASS": "Main" }, "geometry": { "type": "Point", "coordinates": [ -121.6137131, 49.3296241 ] } },
{ "type": "Feature", "properties": { "NID": "f6bf62ebacca4b43a0153f8a1456b654", "STNENNAME": "Popkum", "STNTYPE": "Freight", "STNUSR1ENA": "Canadian National", "TRACKCLASS": "Main" }, "geometry": { "type": "Point", "coordinates": [ -121.7353475, 49.2030528 ] } },
{ "type": "Feature", "properties": { "NID": "f1ab0eeaad7045c391d26a16a9967b33", "STNENNAME": "Lakelse", "STNTYPE": "Freight", "STNUSR1ENA": "Canadian National", "TRACKCLASS": "Main" }, "geometry": { "type": "Point", "coordinates": [ -128.6185702, 54.3769718 ] } },
{ "type": "Feature", "properties": { "NID": "57199a858ff944a4aea446743e12cd07", "STNENNAME": "McGuire", "STNTYPE": "Freight", "STNUSR1ENA": "Canadian National", "TRACKCLASS": "Main" }, "geometry": { "type": "Point", "coordinates": [ -123.1069561, 50.0548899 ] } },
{ "type": "Feature", "properties": { "NID": "0527c038309d4c8bbc9db278e55a89c9", "STNENNAME": "Burns Lake", "STNTYPE": "Mixed", "STNUSR1ENA": "Canadian National", "TRACKCLASS": "Main" }, "geometry": { "type": "Point", "coordinates": [ -125.7641277, 54.228971 ] } },
{ "type": "Feature", "properties": { "NID": "bc6923ac7e6b48de8008ac7e29bb7874", "STNENNAME": "Niteal", "STNTYPE": "Freight", "STNUSR1ENA": "Canadian National", "TRACKCLASS": "Main" }, "geometry": { "type": "Point", "coordinates": [ -121.573842, 58.1292158 ] } },
{ "type": "Feature", "properties": { "NID": "ded5c0d9769b48778044935f85bccf59", "STNENNAME": "Gosnell", "STNTYPE": "Freight", "STNUSR1ENA": "Canadian National", "TRACKCLASS": "Main" }, "geometry": { "type": "Point", "coordinates": [ -119.1070274, 52.5397464 ] } },
{ "type": "Feature", "properties": { "NID": "2db13ed1900b42f5a47ac4f74c8ea3fc", "STNENNAME": "Quesnel", "STNTYPE": "Freight", "STNUSR1ENA": "Canadian National", "TRACKCLASS": "Main" }, "geometry": { "type": "Point", "coordinates": [ -122.4883538, 52.9844483 ] } },
{ "type": "Feature", "properties": { "NID": "f8ef7c98291548d3b63f24bbf26d4139", "STNENNAME": "Matsqui Junction", "STNTYPE": "Unknown", "STNUSR1ENA": "Canadian National", "TRACKCLASS": "Main" }, "geometry": { "type": "Point", "coordinates": [ -122.2888052, 49.1164073 ] } },